timestamp_p,height,x_speed,y_speed,z_speed,pitch,roll,yaw,temperature,distance,barometer,flight_time,battery,mp_distance_x,mp_distance_y,mp_distance_z,class,,,,,,,,,,,,,,,,,,,,,
28123.02875,80,0,0,0,0,0,0,68,84,19309,7,65,-15,-5,86,benign,,,,,,,,,,,,,,,,,,,,,
28123.55962,80,0,0,0,0,0,0,68,84,19305,7,65,-13,-6,86,benign,,,,,,,,,,,,,,,,,,,,,
28124.0769,80,0,0,0,0,0,0,68,83,19303,8,65,-18,-6,85,benign,,,,,,,,,,,,,,,,,,,,,
28124.602,80,0,0,0,-1,0,0,67,83,19307,8,65,-21,-9,84,benign,,,,,,,,,,,,,,,,,,,,,
28125.1291,80,0,0,0,-1,0,0,67,85,19309,9,65,-24,-10,84,benign,,,,,,,,,,,,,,,,,,,,,
28125.6552,80,0,0,0,-1,0,0,68,85,19306,9,65,-25,-10,85,benign,,,,,,,,,,,,,,,,,,,,,
28126.17095,80,0,0,0,-1,0,0,68,85,19305,10,65,-26,-15,84,benign,,,,,,,,,,,,,,,,,,,,,
28126.68745,80,1,0,0,-3,-1,0,68,84,19302,10,65,-25,-11,85,benign,,,,,,,,,,,,,,,,,,,,,
28127.21861,80,1,0,0,-1,0,0,68,82,19307,11,65,-21,-6,83,benign,,,,,,,,,,,,,,,,,,,,,
28127.76447,80,1,0,0,0,0,0,68,80,19309,11,65,-13,-4,82,benign,,,,,,,,,,,,,,,,,,,,,
28128.28109,70,1,0,0,-1,0,0,68,79,19299,12,65,-12,-3,82,benign,,,,,,,,,,,,,,,,,,,,,
28128.8293,70,0,0,0,-1,0,0,68,80,19306,12,65,-10,-4,81,benign,,,,,,,,,,,,,,,,,,,,,
28129.35926,70,1,0,0,-1,-2,0,68,80,19305,13,65,-7,-4,82,benign,,,,,,,,,,,,,,,,,,,,,
28129.89923,70,0,0,0,-1,0,0,68,80,19306,13,65,-7,-4,82,benign,,,,,,,,,,,,,,,,,,,,,
28130.42769,70,0,0,0,-1,0,0,68,80,19306,14,65,-7,-5,82,benign,,,,,,,,,,,,,,,,,,,,,
28130.94434,80,0,0,0,-1,-1,0,68,81,19306,14,65,-10,-9,83,benign,,,,,,,,,,,,,,,,,,,,,
28131.47493,80,0,0,0,-1,0,0,68,81,19310,15,65,-19,-13,82,benign,,,,,,,,,,,,,,,,,,,,,
28132.00354,80,0,0,0,-1,0,0,68,82,19311,15,65,-24,-18,81,benign,,,,,,,,,,,,,,,,,,,,,
28132.51575,80,3,0,0,-8,0,0,68,83,19310,16,65,-22,-17,83,benign,,,,,,,,,,,,,,,,,,,,,
28133.03198,80,2,0,0,0,0,0,68,82,19311,16,65,-10,-16,85,benign,,,,,,,,,,,,,,,,,,,,,
28133.56432,80,2,0,0,-1,0,0,69,83,19316,17,65,1,-19,87,benign,,,,,,,,,,,,,,,,,,,,,
28134.07471,80,2,0,0,-1,0,0,69,83,19305,18,65,12,-22,89,benign,,,,,,,,,,,,,,,,,,,,,
28134.58785,80,2,0,0,-1,0,0,68,84,19309,18,65,20,-27,88,benign,,,,,,,,,,,,,,,,,,,,,
28135.11485,80,2,0,0,-1,0,0,68,84,19311,19,65,23,-23,92,benign,,,,,,,,,,,,,,,,,,,,,
28135.63131,80,2,0,0,-1,0,0,68,84,19311,19,65,30,-15,95,benign,,,,,,,,,,,,,,,,,,,,,
28136.17475,80,1,0,0,-1,1,0,68,83,19319,20,65,41,-11,92,benign,,,,,,,,,,,,,,,,,,,,,
28136.70185,80,0,0,0,0,-3,0,68,82,19313,20,65,47,14,82,benign,,,,,,,,,,,,,,,,,,,,,
28137.20849,80,0,0,0,-4,0,0,68,83,19310,21,65,48,11,81,benign,,,,,,,,,,,,,,,,,,,,,
28137.73902,80,0,0,0,2,0,0,67,82,19316,21,65,47,12,83,benign,,,,,,,,,,,,,,,,,,,,,
28138.26662,80,0,0,0,-1,0,0,67,81,19319,22,65,48,15,80,benign,,,,,,,,,,,,,,,,,,,,,
28138.78774,70,-2,-1,0,4,-4,0,68,80,19312,22,65,53,21,80,benign,,,,,,,,,,,,,,,,,,,,,
28139.32481,70,-3,-3,0,-1,0,0,68,81,19315,23,65,19,-20,87,benign,,,,,,,,,,,,,,,,,,,,,
28139.8504,70,-2,-2,0,-2,0,0,68,80,19317,23,65,2,-10,84,benign,,,,,,,,,,,,,,,,,,,,,
28140.3745,70,0,-1,0,-1,0,0,68,80,19316,24,65,-8,-7,82,benign,,,,,,,,,,,,,,,,,,,,,
28140.9023,70,0,0,0,-3,0,0,69,80,19321,24,65,-11,-5,81,benign,,,,,,,,,,,,,,,,,,,,,
28141.42891,70,0,0,0,0,0,0,69,79,19313,25,65,-9,-2,81,benign,,,,,,,,,,,,,,,,,,,,,
28141.9565,70,0,0,0,0,0,0,68,80,19314,25,65,-7,-4,82,benign,,,,,,,,,,,,,,,,,,,,,
28142.49793,80,0,0,0,0,0,0,68,81,19318,26,65,-8,-4,83,benign,,,,,,,,,,,,,,,,,,,,,
28143.02851,80,4,0,0,0,0,0,67,80,19307,27,65,5,-12,84,benign,,,,,,,,,,,,,,,,,,,,,
28143.5382,70,2,0,0,-1,-1,0,67,81,19319,27,65,22,-21,82,benign,,,,,,,,,,,,,,,,,,,,,
28144.07224,80,2,0,0,-1,-1,0,67,81,19321,28,65,34,-22,85,benign,,,,,,,,,,,,,,,,,,,,,
28144.59947,80,2,0,0,-1,-1,0,67,80,19317,28,65,47,-17,85,benign,,,,,,,,,,,,,,,,,,,,,
28145.12485,70,2,-1,0,-1,-1,0,68,80,19313,29,65,39,11,80,benign,,,,,,,,,,,,,,,,,,,,,
28145.65643,80,1,-1,0,2,-1,0,68,80,19318,29,65,34,8,78,benign,,,,,,,,,,,,,,,,,,,,,
28146.18728,80,0,0,0,0,0,0,68,80,19325,30,65,29,4,79,benign,,,,,,,,,,,,,,,,,,,,,
28146.71786,80,2,0,0,-1,0,0,67,81,19322,30,65,29,7,79,benign,,,,,,,,,,,,,,,,,,,,,
28147.23613,80,1,0,0,0,0,0,67,81,19327,31,65,17,9,81,benign,,,,,,,,,,,,,,,,,,,,,
28147.76472,80,1,0,0,0,0,0,67,81,19327,31,65,4,7,83,benign,,,,,,,,,,,,,,,,,,,,,
28148.31227,80,0,0,0,0,-1,0,67,80,19317,32,65,0,8,82,benign,,,,,,,,,,,,,,,,,,,,,
28148.829,70,0,0,0,0,0,0,68,79,19320,32,65,0,7,81,benign,,,,,,,,,,,,,,,,,,,,,
28149.35905,70,0,0,0,0,0,0,68,79,19321,33,65,1,6,81,benign,,,,,,,,,,,,,,,,,,,,,
28149.88918,70,0,0,0,0,-1,0,68,79,19327,33,65,3,8,81,benign,,,,,,,,,,,,,,,,,,,,,
28150.41521,70,0,0,0,-1,-1,0,68,79,19319,34,65,6,14,80,benign,,,,,,,,,,,,,,,,,,,,,
28150.94367,70,4,0,0,0,0,0,67,78,19320,34,65,6,17,79,benign,,,,,,,,,,,,,,,,,,,,,
28151.46926,70,2,0,0,-1,-1,0,67,79,19321,35,65,-16,25,77,benign,,,,,,,,,,,,,,,,,,,,,
28151.9882,70,2,0,0,-1,0,0,68,79,19325,35,65,-23,27,79,benign,,,,,,,,,,,,,,,,,,,,,
28152.54621,70,2,0,0,-2,0,0,68,78,19318,36,65,-34,27,79,benign,,,,,,,,,,,,,,,,,,,,,
28153.10921,70,2,0,0,-2,-1,0,68,78,19322,37,65,-45,40,69,benign,,,,,,,,,,,,,,,,,,,,,
28153.62533,70,2,-1,0,-1,-1,0,68,78,19321,37,65,-25,-22,82,benign,,,,,,,,,,,,,,,,,,,,,
28154.16405,70,0,0,0,1,0,0,68,79,19326,38,65,-21,-26,78,benign,,,,,,,,,,,,,,,,,,,,,
28154.69463,80,0,0,0,-4,-5,0,68,80,19323,38,65,-17,-29,79,benign,,,,,,,,,,,,,,,,,,,,,
28155.2083,80,1,-2,0,-1,0,0,68,80,19327,39,65,-16,-24,79,benign,,,,,,,,,,,,,,,,,,,,,
28155.72349,70,1,-1,0,-1,0,0,68,79,19325,39,65,-10,-14,80,benign,,,,,,,,,,,,,,,,,,,,,
28156.24011,70,1,-1,0,-1,0,0,68,78,19326,40,65,-4,-6,80,benign,,,,,,,,,,,,,,,,,,,,,
28156.77022,70,0,0,0,0,1,0,68,77,19324,40,65,-3,-3,79,benign,,,,,,,,,,,,,,,,,,,,,
28157.29831,70,0,0,0,0,0,19,68,78,19325,41,65,-3,-4,79,benign,,,,,,,,,,,,,,,,,,,,,
28157.82724,70,0,0,0,0,-1,55,68,77,19324,41,65,-2,-8,78,benign,,,,,,,,,,,,,,,,,,,,,
28158.35815,70,0,0,0,0,0,85,68,77,19323,42,65,-2,-10,78,benign,,,,,,,,,,,,,,,,,,,,,
28158.88785,70,0,0,0,0,0,121,68,78,19323,42,65,-2,-14,78,benign,,,,,,,,,,,,,,,,,,,,,
28159.41344,70,0,0,0,0,0,151,68,78,19322,43,65,0,-15,80,benign,,,,,,,,,,,,,,,,,,,,,
28159.93971,70,0,0,0,0,0,172,68,77,19329,43,65,-2,-19,78,benign,,,,,,,,,,,,,,,,,,,,,
28160.46787,70,0,0,0,0,0,178,68,76,19325,44,65,-4,-17,77,benign,,,,,,,,,,,,,,,,,,,,,
28161.00793,70,0,0,0,0,0,178,68,76,19323,45,65,-4,-13,77,benign,,,,,,,,,,,,,,,,,,,,,
28161.52868,70,0,0,0,0,0,178,68,77,19333,45,65,-3,-12,78,benign,,,,,,,,,,,,,,,,,,,,,
28162.05907,70,-4,0,0,-4,0,178,68,78,19320,46,65,-9,-13,78,benign,,,,,,,,,,,,,,,,,,,,,
28162.5921,70,-2,0,0,0,0,178,68,78,19330,46,65,-31,-9,79,benign,,,,,,,,,,,,,,,,,,,,,
28163.12268,70,-2,0,0,0,0,178,68,78,19327,47,65,-39,-8,82,benign,,,,,,,,,,,,,,,,,,,,,
28163.64804,70,-2,0,0,-1,0,178,68,78,19321,47,65,-30,26,75,benign,,,,,,,,,,,,,,,,,,,,,
28164.16891,70,-2,0,0,0,0,178,68,78,19332,48,65,-14,22,77,benign,,,,,,,,,,,,,,,,,,,,,
28164.69604,70,0,0,0,0,0,178,68,78,19327,48,65,-3,12,80,benign,,,,,,,,,,,,,,,,,,,,,
28165.20479,70,0,-1,0,0,0,178,68,79,19330,49,65,4,9,80,benign,,,,,,,,,,,,,,,,,,,,,
28165.76333,80,0,0,0,0,-1,178,68,80,19323,49,65,3,5,81,benign,,,,,,,,,,,,,,,,,,,,,
28166.29391,80,0,0,0,0,0,178,68,80,19322,50,65,3,3,82,benign,,,,,,,,,,,,,,,,,,,,,
28166.81535,80,0,0,0,0,0,178,68,80,19328,50,65,3,3,82,benign,,,,,,,,,,,,,,,,,,,,,
28167.3416,80,-4,0,0,1,0,178,67,81,19326,51,65,14,0,82,benign,,,,,,,,,,,,,,,,,,,,,
28167.87418,80,-2,0,0,-1,0,178,68,81,19327,51,65,35,-1,79,benign,,,,,,,,,,,,,,,,,,,,,
28168.39709,80,-2,0,0,-1,0,178,68,80,19322,52,65,47,-6,77,benign,,,,,,,,,,,,,,,,,,,,,
28168.95896,80,-2,0,0,0,0,178,68,80,19322,52,65,34,0,85,benign,,,,,,,,,,,,,,,,,,,,,
28169.48265,80,-1,0,0,0,-3,178,68,80,19324,53,65,24,-5,82,benign,,,,,,,,,,,,,,,,,,,,,
28169.99811,80,0,0,0,0,0,178,68,80,19324,54,65,12,-6,83,benign,,,,,,,,,,,,,,,,,,,,,
28170.5247,80,-1,0,0,-1,0,178,68,80,19327,54,65,14,-8,82,benign,,,,,,,,,,,,,,,,,,,,,
28171.05372,80,0,0,0,0,0,178,67,79,19327,55,65,1,0,83,benign,,,,,,,,,,,,,,,,,,,,,
28171.61173,70,0,0,0,0,0,178,67,78,19324,55,64,0,0,82,benign,,,,,,,,,,,,,,,,,,,,,
28172.12401,70,0,0,0,0,0,178,68,78,19324,56,64,1,0,82,benign,,,,,,,,,,,,,,,,,,,,,
28172.65507,70,-4,0,0,-3,0,178,68,79,19322,56,64,6,-1,81,benign,,,,,,,,,,,,,,,,,,,,,
28173.20351,80,-2,0,0,0,0,178,68,80,19323,57,64,-11,-3,81,benign,,,,,,,,,,,,,,,,,,,,,
28173.73263,80,-2,0,0,-1,0,178,68,80,19327,57,64,-22,-2,81,benign,,,,,,,,,,,,,,,,,,,,,
28174.25922,70,-2,0,0,-1,0,178,68,78,19324,58,64,-39,-2,76,benign,,,,,,,,,,,,,,,,,,,,,
28174.78781,70,-2,0,0,0,0,178,68,77,19325,58,64,-47,4,78,benign,,,,,,,,,,,,,,,,,,,,,
28175.29999,70,-1,0,0,0,0,178,68,77,19327,59,64,-54,-4,74,benign,,,,,,,,,,,,,,,,,,,,,
28175.81392,70,0,1,0,0,2,178,68,78,19321,59,64,-54,-4,74,benign,,,,,,,,,,,,,,,,,,,,,
28176.33032,70,0,0,0,6,0,178,68,78,19324,60,64,-54,-4,74,benign,,,,,,,,,,,,,,,,,,,,,
28176.84893,80,4,0,0,0,-1,178,68,80,19330,60,64,-54,-4,74,benign,,,,,,,,,,,,,,,,,,,,,
28177.36706,80,3,0,0,-1,0,178,68,79,19328,61,63,-27,2,79,benign,,,,,,,,,,,,,,,,,,,,,
28177.89457,80,1,0,0,-1,0,178,68,79,19325,61,63,-9,1,80,benign,,,,,,,,,,,,,,,,,,,,,
28178.42229,80,0,0,0,-2,0,178,68,79,19322,62,63,-4,3,81,benign,,,,,,,,,,,,,,,,,,,,,
28178.96391,80,0,0,0,0,0,-146,68,80,19321,62,63,0,3,82,benign,,,,,,,,,,,,,,,,,,,,,
28179.49708,80,0,0,0,0,0,-115,68,80,19333,63,63,0,3,82,benign,,,,,,,,,,,,,,,,,,,,,
28180.02584,80,0,0,0,0,0,-84,68,82,19325,63,63,-4,5,83,benign,,,,,,,,,,,,,,,,,,,,,
28180.55596,80,0,0,0,0,0,-46,68,83,19326,64,63,-4,8,84,benign,,,,,,,,,,,,,,,,,,,,,
28181.08097,80,0,0,0,0,0,-17,68,82,19324,65,63,-3,8,85,benign,,,,,,,,,,,,,,,,,,,,,
28181.60856,80,0,0,0,0,0,-5,68,81,19333,65,63,-2,9,84,benign,,,,,,,,,,,,,,,,,,,,,
28182.12319,80,0,0,0,0,0,-3,68,80,19324,66,63,-200,-200,-200,benign,,,,,,,,,,,,,,,,,,,,,
28182.65245,80,0,0,0,0,0,-3,68,80,19331,66,62,-200,-200,-200,benign,,,,,,,,,,,,,,,,,,,,,
28183.16112,70,0,0,2,0,0,-3,67,76,19319,67,62,-200,-200,-200,benign,,,,,,,,,,,,,,,,,,,,,
28183.67527,50,0,0,4,0,0,-3,67,56,19305,67,62,-200,-200,-200,benign,,,,,,,,,,,,,,,,,,,,,
28184.18343,20,0,0,4,0,0,-3,68,26,19266,68,62,-200,-200,-200,benign,,,,,,,,,,,,,,,,,,,,,
28184.69258,0,0,0,3,0,0,-3,68,10,19011,68,62,-200,-200,-200,benign,,,,,,,,,,,,,,,,,,,,,
28185.20103,0,-1,0,0,-1,0,-4,68,10,19081,69,62,-200,-200,-200,benign,,,,,,,,,,,,,,,,,,,,,
28185.74757,0,-1,0,0,-1,0,-4,68,10,19176,69,62,-200,-200,-200,benign,,,,,,,,,,,,,,,,,,,,,
28314.65562,70,0,0,0,0,0,0,72,84,19341,11,52,-6,-4,86,benign,,,,,,,,,,,,,,,,,,,,,
28315.18418,70,0,0,0,0,0,0,72,84,19341,12,52,-7,-5,86,benign,,,,,,,,,,,,,,,,,,,,,
28315.71427,70,0,0,0,0,0,0,72,84,19346,12,52,-6,-6,86,benign,,,,,,,,,,,,,,,,,,,,,
28316.23128,70,0,0,0,0,0,0,72,84,19347,13,52,-6,-8,86,benign,,,,,,,,,,,,,,,,,,,,,
28316.76236,70,0,0,0,0,0,0,72,84,19346,13,52,-5,-9,86,benign,,,,,,,,,,,,,,,,,,,,,
28317.30593,70,0,-1,0,0,-1,0,72,84,19347,14,52,-4,-10,86,benign,,,,,,,,,,,,,,,,,,,,,
28317.82456,70,0,-1,0,0,0,0,72,82,19342,14,52,-3,-7,85,benign,,,,,,,,,,,,,,,,,,,,,
28318.35514,70,0,0,0,0,2,0,72,81,19345,15,52,-3,-5,84,benign,,,,,,,,,,,,,,,,,,,,,
28318.88294,70,0,0,0,0,0,0,72,82,19351,15,52,-4,-7,83,benign,,,,,,,,,,,,,,,,,,,,,
28319.41109,70,0,0,0,0,0,0,71,82,19343,16,52,-1,-10,85,benign,,,,,,,,,,,,,,,,,,,,,
28319.94068,70,0,0,0,0,0,0,71,83,19344,16,52,-1,-11,86,benign,,,,,,,,,,,,,,,,,,,,,
28320.46667,70,0,0,0,0,0,0,72,84,19352,17,52,0,-15,86,benign,,,,,,,,,,,,,,,,,,,,,
28320.99577,70,0,0,0,0,0,0,72,84,19343,17,52,0,-15,87,benign,,,,,,,,,,,,,,,,,,,,,
28321.54231,70,0,0,0,-9,0,0,71,85,19344,18,52,1,-15,87,benign,,,,,,,,,,,,,,,,,,,,,
28322.06599,70,3,0,0,1,0,0,71,84,19346,19,52,19,-16,88,benign,,,,,,,,,,,,,,,,,,,,,
28322.59317,70,2,0,0,-1,0,0,71,84,19344,19,52,31,-15,91,benign,,,,,,,,,,,,,,,,,,,,,
28323.12226,70,2,0,0,-1,-1,0,71,83,19339,20,52,44,9,82,benign,,,,,,,,,,,,,,,,,,,,,
28323.63937,70,2,0,0,0,-1,0,72,83,19339,20,52,31,15,80,benign,,,,,,,,,,,,,,,,,,,,,
28324.1989,70,0,0,0,2,2,0,72,82,19341,21,52,18,13,82,benign,,,,,,,,,,,,,,,,,,,,,
28324.72002,70,0,0,0,-2,-2,0,71,84,19342,21,52,13,11,83,benign,,,,,,,,,,,,,,,,,,,,,
28325.25854,70,1,0,0,0,-1,0,71,83,19344,22,52,10,11,83,benign,,,,,,,,,,,,,,,,,,,,,
28325.78165,70,0,-1,0,0,-1,0,71,80,19344,22,52,3,9,81,benign,,,,,,,,,,,,,,,,,,,,,
28326.30907,70,0,-1,0,0,0,0,71,79,19330,23,52,0,6,79,benign,,,,,,,,,,,,,,,,,,,,,
28326.83666,60,0,0,0,0,0,0,71,78,19340,23,52,0,5,79,benign,,,,,,,,,,,,,,,,,,,,,
28327.36617,60,0,0,0,0,0,0,71,78,19334,24,52,0,7,79,benign,,,,,,,,,,,,,,,,,,,,,
28327.9146,70,2,0,0,-8,0,0,71,79,19334,24,52,0,12,79,benign,,,,,,,,,,,,,,,,,,,,,
28328.44421,70,3,0,0,0,0,0,71,79,19333,25,52,-25,22,75,benign,,,,,,,,,,,,,,,,,,,,,
28328.97377,70,2,0,0,0,-1,0,71,79,19339,25,52,-34,24,77,benign,,,,,,,,,,,,,,,,,,,,,
28329.47564,70,2,0,0,-1,-1,0,71,79,19337,26,52,-34,-35,76,benign,,,,,,,,,,,,,,,,,,,,,
28330.00673,70,2,-1,0,0,-1,0,71,79,19334,27,52,-23,-23,82,benign,,,,,,,,,,,,,,,,,,,,,
28330.53669,70,1,-1,0,0,-1,0,70,78,19336,27,52,-13,-25,78,benign,,,,,,,,,,,,,,,,,,,,,
28331.06553,70,0,0,0,0,2,0,70,79,19339,28,52,-11,-20,78,benign,,,,,,,,,,,,,,,,,,,,,
28331.5939,70,0,0,0,-2,-2,0,70,79,19345,28,52,-8,-18,79,benign,,,,,,,,,,,,,,,,,,,,,
28332.10451,70,0,-1,0,0,0,0,70,79,19337,29,52,-8,-19,79,benign,,,,,,,,,,,,,,,,,,,,,
28332.65376,70,0,-1,0,0,0,0,70,78,19339,29,52,-3,-9,80,benign,,,,,,,,,,,,,,,,,,,,,
28333.16519,70,0,-1,0,0,0,0,70,78,19339,30,52,-3,-6,79,benign,,,,,,,,,,,,,,,,,,,,,
28333.72615,60,0,0,0,0,0,0,71,77,19338,30,52,-4,-4,78,benign,,,,,,,,,,,,,,,,,,,,,
28334.25535,60,0,0,0,0,0,0,71,77,19342,31,52,-4,-8,78,benign,,,,,,,,,,,,,,,,,,,,,
28334.78033,60,2,0,0,-8,0,0,70,79,19336,31,52,-6,-10,78,benign,,,,,,,,,,,,,,,,,,,,,
28335.28089,70,3,0,0,0,0,0,70,78,19338,32,52,10,-16,78,benign,,,,,,,,,,,,,,,,,,,,,
28335.82744,70,2,0,0,-1,-1,0,70,78,19337,32,52,21,-21,77,benign,,,,,,,,,,,,,,,,,,,,,
28336.34415,60,2,0,0,-1,-1,0,70,77,19329,33,52,34,-24,78,benign,,,,,,,,,,,,,,,,,,,,,
28336.87538,60,2,0,0,-1,0,0,70,78,19337,33,52,-31,-3,81,benign,,,,,,,,,,,,,,,,,,,,,
28337.40302,70,2,-1,0,-1,-1,0,71,79,19340,34,52,-21,-9,81,benign,,,,,,,,,,,,,,,,,,,,,
28337.95281,70,0,0,0,0,0,0,71,81,19338,34,52,-12,-4,83,benign,,,,,,,,,,,,,,,,,,,,,
28338.46947,70,0,0,0,-1,0,0,70,80,19334,35,52,-7,-2,83,benign,,,,,,,,,,,,,,,,,,,,,
28338.99183,70,0,0,0,0,0,0,70,79,19338,35,52,-4,-8,81,benign,,,,,,,,,,,,,,,,,,,,,
28339.52086,60,0,0,0,0,0,0,70,78,19335,36,52,-4,-9,80,benign,,,,,,,,,,,,,,,,,,,,,
28340.04966,70,0,0,0,0,0,3,70,79,19342,37,52,-3,-5,81,benign,,,,,,,,,,,,,,,,,,,,,
28340.57594,70,0,0,0,0,0,33,70,79,19334,37,52,-4,-4,81,benign,,,,,,,,,,,,,,,,,,,,,
28341.1056,70,0,0,0,0,0,68,70,80,19335,38,52,-3,-7,81,benign,,,,,,,,,,,,,,,,,,,,,
28341.63472,70,0,0,0,0,0,99,70,78,19334,38,52,-6,-11,80,benign,,,,,,,,,,,,,,,,,,,,,
28342.16761,60,0,0,0,0,0,135,70,77,19342,39,52,-3,-13,79,benign,,,,,,,,,,,,,,,,,,,,,
28342.71528,60,0,0,0,0,0,164,70,77,19337,39,52,-6,-15,78,benign,,,,,,,,,,,,,,,,,,,,,
28343.24339,60,0,0,0,0,0,176,70,76,19333,40,52,-3,-16,78,benign,,,,,,,,,,,,,,,,,,,,,
28343.75965,60,0,0,0,0,0,178,70,77,19333,40,52,-5,-15,79,benign,,,,,,,,,,,,,,,,,,,,,
28344.28923,70,0,0,0,0,0,178,70,78,19335,41,52,-5,-13,80,benign,,,,,,,,,,,,,,,,,,,,,
28344.80683,70,0,0,0,-5,0,178,70,79,19335,41,52,-4,-12,81,benign,,,,,,,,,,,,,,,,,,,,,
28345.32232,70,-4,0,0,-1,0,178,70,79,19343,42,52,-15,-13,80,benign,,,,,,,,,,,,,,,,,,,,,
28345.8391,70,-2,0,0,0,0,178,70,78,19339,42,52,-35,-5,86,benign,,,,,,,,,,,,,,,,,,,,,
28346.35222,70,-2,0,0,0,0,178,70,78,19346,43,52,-35,-5,86,benign,,,,,,,,,,,,,,,,,,,,,
28346.88329,70,-2,0,0,0,0,178,70,78,19343,43,52,12,-30,76,benign,,,,,,,,,,,,,,,,,,,,,
28347.39931,70,-1,0,0,5,0,178,70,77,19337,44,52,3,-29,76,benign,,,,,,,,,,,,,,,,,,,,,
28347.91221,60,0,0,0,0,2,178,70,76,19341,44,52,-4,-29,75,benign,,,,,,,,,,,,,,,,,,,,,
28348.47472,70,0,-2,0,0,0,178,70,77,19341,45,52,-5,-17,78,benign,,,,,,,,,,,,,,,,,,,,,
28349.00395,70,0,-1,0,0,0,178,70,77,19338,45,52,-6,-7,78,benign,,,,,,,,,,,,,,,,,,,,,
28349.53055,70,0,0,0,0,-1,178,70,78,19340,46,52,-6,-3,79,benign,,,,,,,,,,,,,,,,,,,,,
28350.05914,70,0,0,0,0,0,178,70,79,19339,47,52,-8,-1,79,benign,,,,,,,,,,,,,,,,,,,,,
28350.58673,70,0,0,0,0,0,178,70,79,19343,47,52,-13,1,78,benign,,,,,,,,,,,,,,,,,,,,,
28351.10238,70,-2,0,0,-1,0,178,70,78,19339,48,52,-13,0,79,benign,,,,,,,,,,,,,,,,,,,,,
28351.62495,70,-2,0,0,-1,0,178,69,78,19329,48,52,-28,0,78,benign,,,,,,,,,,,,,,,,,,,,,
28352.14307,70,-2,0,0,4,0,178,69,77,19329,49,52,-52,-3,70,benign,,,,,,,,,,,,,,,,,,,,,
28352.65356,60,0,0,0,6,0,178,69,78,19345,49,52,-37,6,77,benign,,,,,,,,,,,,,,,,,,,,,
28353.18421,70,2,0,0,0,0,179,69,78,19344,50,52,-61,8,60,benign,,,,,,,,,,,,,,,,,,,,,
28353.6984,70,2,0,0,0,0,178,69,79,19341,50,52,-32,0,78,benign,,,,,,,,,,,,,,,,,,,,,
28354.2108,70,2,0,0,-5,0,178,69,80,19340,51,52,-18,0,80,benign,,,,,,,,,,,,,,,,,,,,,
28354.72841,70,0,0,0,2,0,178,69,80,19341,51,52,-8,-2,81,benign,,,,,,,,,,,,,,,,,,,,,
28355.24915,70,1,0,0,0,0,178,69,80,19346,52,52,-6,-2,81,benign,,,,,,,,,,,,,,,,,,,,,
28355.78025,70,0,0,0,-5,0,178,69,80,19337,52,52,-10,0,80,benign,,,,,,,,,,,,,,,,,,,,,
28356.31085,70,-4,0,0,0,0,179,69,80,19337,53,52,-13,-5,80,benign,,,,,,,,,,,,,,,,,,,,,
28356.83951,70,-2,0,0,0,0,178,70,81,19342,53,52,-34,0,80,benign,,,,,,,,,,,,,,,,,,,,,
28357.3659,70,-2,0,0,0,0,178,70,81,19332,54,52,-48,-7,76,benign,,,,,,,,,,,,,,,,,,,,,
28357.89056,70,-2,0,0,0,0,178,70,81,19336,54,52,-25,5,80,benign,,,,,,,,,,,,,,,,,,,,,
28358.42114,70,-1,0,0,2,0,178,70,80,19339,55,52,-5,3,82,benign,,,,,,,,,,,,,,,,,,,,,
28358.94651,70,0,0,0,0,0,178,70,80,19340,55,52,-3,2,82,benign,,,,,,,,,,,,,,,,,,,,,
28359.46382,70,0,0,0,0,0,178,70,83,19337,56,52,-3,2,83,benign,,,,,,,,,,,,,,,,,,,,,
28360.00294,70,0,0,0,0,0,178,70,82,19338,57,52,-3,2,84,benign,,,,,,,,,,,,,,,,,,,,,
28360.51979,70,-4,0,0,-2,0,178,70,81,19339,57,52,-2,2,82,benign,,,,,,,,,,,,,,,,,,,,,
28361.04474,70,-2,0,0,0,0,178,69,81,19339,58,52,19,0,81,benign,,,,,,,,,,,,,,,,,,,,,
28361.54861,70,-2,0,0,0,0,178,69,80,19334,58,52,33,-1,78,benign,,,,,,,,,,,,,,,,,,,,,
28362.07527,70,-2,0,0,-1,0,178,69,80,19337,59,52,46,-2,79,benign,,,,,,,,,,,,,,,,,,,,,
28362.60682,70,-2,0,0,0,0,178,69,80,19334,59,52,35,-3,83,benign,,,,,,,,,,,,,,,,,,,,,
28363.12421,70,0,0,0,0,0,178,69,79,19335,60,52,27,-9,81,benign,,,,,,,,,,,,,,,,,,,,,
28363.6508,70,0,0,0,-2,0,178,69,79,19336,60,52,24,-8,80,benign,,,,,,,,,,,,,,,,,,,,,
28364.17785,70,-1,0,0,0,0,178,69,80,19331,61,52,17,-7,81,benign,,,,,,,,,,,,,,,,,,,,,
28364.67939,70,-1,0,0,-1,0,178,69,79,19336,61,52,7,-5,81,benign,,,,,,,,,,,,,,,,,,,,,
28365.21595,70,0,0,0,1,0,178,70,77,19333,62,51,-1,-2,80,benign,,,,,,,,,,,,,,,,,,,,,
28365.74006,70,0,0,0,0,0,-155,69,78,19333,62,51,1,-3,80,benign,,,,,,,,,,,,,,,,,,,,,
28366.26589,70,0,0,0,0,0,-131,69,77,19326,63,51,2,-5,79,benign,,,,,,,,,,,,,,,,,,,,,
28366.78057,70,0,0,0,0,0,-95,69,78,19343,63,51,0,0,80,benign,,,,,,,,,,,,,,,,,,,,,
28367.3105,70,0,0,0,0,0,-65,69,78,19341,64,51,2,0,80,benign,,,,,,,,,,,,,,,,,,,,,
28367.84363,70,0,0,0,0,0,-30,69,81,19339,64,51,1,2,82,benign,,,,,,,,,,,,,,,,,,,,,
28368.35925,70,0,0,0,0,0,-8,69,82,19344,65,51,-1,2,84,benign,,,,,,,,,,,,,,,,,,,,,
28368.88782,70,0,0,0,0,0,-3,69,82,19340,65,51,0,3,84,benign,,,,,,,,,,,,,,,,,,,,,
28369.41193,70,0,0,0,0,0,-2,69,81,19336,66,51,-200,-200,-200,benign,,,,,,,,,,,,,,,,,,,,,
28369.91322,70,0,0,1,0,0,-3,69,78,19332,66,51,-200,-200,-200,benign,,,,,,,,,,,,,,,,,,,,,
28370.44386,50,0,0,4,0,0,-3,69,61,19316,67,50,-200,-200,-200,benign,,,,,,,,,,,,,,,,,,,,,
28370.971,30,0,0,4,0,0,-2,69,38,19300,67,50,-200,-200,-200,benign,,,,,,,,,,,,,,,,,,,,,
28371.49759,0,0,0,4,0,0,-2,69,18,19246,68,50,-200,-200,-200,benign,,,,,,,,,,,,,,,,,,,,,
28372.02718,0,0,0,0,-1,0,0,69,10,19000,69,50,-200,-200,-200,benign,,,,,,,,,,,,,,,,,,,,,
28372.55477,0,0,0,0,-1,0,0,69,10,19177,69,50,-200,-200,-200,benign,,,,,,,,,,,,,,,,,,,,,
28422.47751,70,0,0,0,0,0,0,68,82,19359,11,40,-10,-4,84,benign,,,,,,,,,,,,,,,,,,,,,
28423.00365,70,0,0,0,0,0,0,68,82,19355,11,40,-10,-5,83,benign,,,,,,,,,,,,,,,,,,,,,
28423.53196,70,0,0,0,0,0,0,69,82,19347,12,40,-9,-7,84,benign,,,,,,,,,,,,,,,,,,,,,
28424.0486,70,0,0,0,0,-1,0,69,83,19352,12,40,-11,-6,84,benign,,,,,,,,,,,,,,,,,,,,,
28424.57718,70,0,0,0,0,-1,0,69,84,19352,13,40,-7,-7,85,benign,,,,,,,,,,,,,,,,,,,,,
28425.10635,70,0,0,0,0,0,0,69,84,19360,13,40,-10,-8,85,benign,,,,,,,,,,,,,,,,,,,,,
28425.63586,70,0,0,0,0,-1,0,68,84,19355,14,40,-10,-7,86,benign,,,,,,,,,,,,,,,,,,,,,
28426.16353,70,1,0,0,0,-1,0,68,83,19354,14,40,-8,-7,85,benign,,,,,,,,,,,,,,,,,,,,,
28426.68926,70,0,0,0,0,-1,0,68,81,19356,15,40,-6,-5,84,benign,,,,,,,,,,,,,,,,,,,,,
28427.23514,60,0,0,0,0,0,0,68,81,19353,16,40,-4,-7,83,benign,,,,,,,,,,,,,,,,,,,,,
28427.75346,70,0,0,0,0,0,0,68,82,19346,16,40,-3,-10,84,benign,,,,,,,,,,,,,,,,,,,,,
28428.28108,70,0,0,0,0,-1,0,68,83,19351,17,40,-6,-14,85,benign,,,,,,,,,,,,,,,,,,,,,
28428.82359,70,0,0,0,0,-1,0,68,83,19345,17,40,-5,-18,85,benign,,,,,,,,,,,,,,,,,,,,,
28429.36638,70,2,0,0,-8,0,0,68,85,19347,18,40,-4,-22,86,benign,,,,,,,,,,,,,,,,,,,,,
28429.89548,70,3,0,0,0,0,0,68,84,19346,18,40,11,-22,88,benign,,,,,,,,,,,,,,,,,,,,,
28430.42359,70,2,0,0,-1,-1,0,68,83,19340,19,40,24,-22,95,benign,,,,,,,,,,,,,,,,,,,,,
28430.95069,70,2,0,0,-1,-1,0,68,82,19343,19,40,24,-22,95,benign,,,,,,,,,,,,,,,,,,,,,
28431.46831,70,2,0,0,-1,-1,0,68,81,19344,20,40,43,19,81,benign,,,,,,,,,,,,,,,,,,,,,
28431.98563,70,1,-1,0,0,-1,0,68,80,19338,20,40,30,20,79,benign,,,,,,,,,,,,,,,,,,,,,
28432.51385,70,0,0,0,0,0,0,68,80,19348,21,40,26,17,78,benign,,,,,,,,,,,,,,,,,,,,,
28433.03845,60,1,-1,0,-4,-3,0,68,80,19338,21,40,26,15,79,benign,,,,,,,,,,,,,,,,,,,,,
28433.55452,60,1,-1,0,0,0,0,69,80,19339,22,40,15,12,80,benign,,,,,,,,,,,,,,,,,,,,,
28434.07015,60,1,0,0,0,-1,0,69,79,19344,22,40,7,8,80,benign,,,,,,,,,,,,,,,,,,,,,
28434.58531,60,0,0,0,1,-1,0,69,78,19341,23,40,2,5,80,benign,,,,,,,,,,,,,,,,,,,,,
28435.13185,60,0,0,0,0,-1,0,69,79,19337,23,40,2,5,80,benign,,,,,,,,,,,,,,,,,,,,,
28435.66209,60,0,0,0,0,0,0,69,80,19345,24,40,4,6,81,benign,,,,,,,,,,,,,,,,,,,,,
28436.17596,70,0,0,0,0,0,0,69,81,19346,24,40,5,7,82,benign,,,,,,,,,,,,,,,,,,,,,
28436.71692,70,0,0,0,-9,0,0,68,82,19345,25,40,10,13,82,benign,,,,,,,,,,,,,,,,,,,,,
28437.24647,70,3,0,0,0,0,0,68,80,19347,26,40,-2,15,83,benign,,,,,,,,,,,,,,,,,,,,,
28437.75764,70,2,0,0,-1,-1,0,68,81,19349,26,40,-22,25,80,benign,,,,,,,,,,,,,,,,,,,,,
28438.27525,60,2,0,0,-1,0,0,68,80,19349,27,40,-33,29,78,benign,,,,,,,,,,,,,,,,,,,,,
28438.80445,60,2,0,0,-1,0,0,69,80,19347,27,40,-46,-32,74,benign,,,,,,,,,,,,,,,,,,,,,
28439.33111,70,2,-1,0,-1,0,0,69,81,19336,28,40,-30,-30,81,benign,,,,,,,,,,,,,,,,,,,,,
28439.84266,70,1,-1,0,3,-1,0,68,81,19338,28,40,-18,-25,82,benign,,,,,,,,,,,,,,,,,,,,,
28440.36598,70,0,0,0,0,0,0,68,81,19348,29,40,-15,-27,80,benign,,,,,,,,,,,,,,,,,,,,,
28440.88299,60,1,-2,0,0,0,0,68,80,19340,29,40,-14,-26,80,benign,,,,,,,,,,,,,,,,,,,,,
28441.39714,60,0,-1,0,0,0,0,68,81,19338,30,40,-8,-16,81,benign,,,,,,,,,,,,,,,,,,,,,
28441.92239,70,0,-1,0,-1,-1,0,68,81,19351,30,40,-5,-11,83,benign,,,,,,,,,,,,,,,,,,,,,
28442.45101,60,0,-1,0,0,0,0,68,81,19346,31,40,-4,-8,82,benign,,,,,,,,,,,,,,,,,,,,,
28442.96307,60,0,0,0,-1,-1,0,68,81,19346,31,40,-3,-6,82,benign,,,,,,,,,,,,,,,,,,,,,
28443.49413,60,0,0,0,-1,1,0,69,80,19337,32,40,-3,-4,82,benign,,,,,,,,,,,,,,,,,,,,,
28444.05668,60,0,0,0,0,0,0,69,80,19352,32,40,-2,-8,82,benign,,,,,,,,,,,,,,,,,,,,,
28444.58579,70,0,0,0,0,-1,0,69,81,19351,33,40,-4,-10,82,benign,,,,,,,,,,,,,,,,,,,,,
28445.11437,60,4,0,0,-1,0,0,69,81,19350,33,40,0,-14,82,benign,,,,,,,,,,,,,,,,,,,,,
28445.6454,70,2,0,0,-1,0,0,68,81,19350,34,40,18,-25,79,benign,,,,,,,,,,,,,,,,,,,,,
28446.17289,60,2,0,0,-1,-1,0,68,80,19349,34,40,26,-26,80,benign,,,,,,,,,,,,,,,,,,,,,
28446.70112,60,2,0,0,-1,-1,0,68,79,19338,35,40,-52,-8,78,benign,,,,,,,,,,,,,,,,,,,,,
28447.21669,60,1,0,0,-2,-1,0,68,80,19342,35,40,-38,-12,82,benign,,,,,,,,,,,,,,,,,,,,,
28447.74715,60,1,-1,0,-1,0,0,69,80,19347,36,40,-20,-14,83,benign,,,,,,,,,,,,,,,,,,,,,
28448.26194,60,0,0,0,0,0,0,69,81,19350,37,40,-16,-11,82,benign,,,,,,,,,,,,,,,,,,,,,
28448.78036,60,0,0,0,-1,0,0,69,81,19346,37,40,-13,-12,83,benign,,,,,,,,,,,,,,,,,,,,,
28449.29598,60,0,-1,0,0,0,0,69,80,19346,38,40,-8,-9,82,benign,,,,,,,,,,,,,,,,,,,,,
28449.82271,60,0,0,0,0,1,0,68,79,19346,38,40,-3,-4,81,benign,,,,,,,,,,,,,,,,,,,,,
28450.36977,60,0,0,0,0,0,27,68,80,19351,39,40,-2,-4,81,benign,,,,,,,,,,,,,,,,,,,,,
28450.89743,60,0,0,0,0,0,57,68,79,19352,39,40,-2,-4,82,benign,,,,,,,,,,,,,,,,,,,,,
28451.41655,60,0,0,0,0,0,88,68,79,19350,40,40,-1,-9,81,benign,,,,,,,,,,,,,,,,,,,,,
28451.93585,60,0,0,0,0,0,125,68,77,19352,40,40,0,-12,79,benign,,,,,,,,,,,,,,,,,,,,,
28452.46353,60,0,0,0,0,0,156,68,77,19349,41,40,-1,-15,78,benign,,,,,,,,,,,,,,,,,,,,,
28452.97879,60,0,0,0,0,0,174,68,78,19345,41,40,-4,-16,79,benign,,,,,,,,,,,,,,,,,,,,,
28453.50695,60,0,0,0,0,0,178,68,79,19351,42,40,-2,-13,81,benign,,,,,,,,,,,,,,,,,,,,,
28454.02368,60,0,0,0,0,0,178,69,79,19354,42,40,-3,-11,81,benign,,,,,,,,,,,,,,,,,,,,,
28454.55434,60,0,0,0,-9,0,178,69,79,19356,43,40,-5,-10,81,benign,,,,,,,,,,,,,,,,,,,,,
28455.08419,60,-3,0,0,1,0,177,69,78,19351,43,40,-21,-10,80,benign,,,,,,,,,,,,,,,,,,,,,
28455.60236,60,-2,0,0,0,0,177,68,79,19355,44,40,-33,-5,83,benign,,,,,,,,,,,,,,,,,,,,,
28456.11499,60,-2,0,0,0,0,178,68,79,19358,44,40,-60,-2,76,benign,,,,,,,,,,,,,,,,,,,,,
28456.63161,60,-2,0,0,0,0,178,68,79,19362,45,40,-60,-2,76,benign,,,,,,,,,,,,,,,,,,,,,
28457.16206,60,-1,0,0,0,0,178,68,79,19353,45,40,5,-17,80,benign,,,,,,,,,,,,,,,,,,,,,
28457.67565,60,0,0,0,0,0,178,68,78,19364,46,40,0,-14,80,benign,,,,,,,,,,,,,,,,,,,,,
28458.21088,60,0,-1,0,0,0,178,68,79,19360,46,40,0,-12,79,benign,,,,,,,,,,,,,,,,,,,,,
28458.73903,60,0,0,0,0,-2,178,69,79,19359,47,40,-1,-6,80,benign,,,,,,,,,,,,,,,,,,,,,
28459.26662,60,0,0,0,0,0,178,69,79,19365,47,40,-1,-4,80,benign,,,,,,,,,,,,,,,,,,,,,
28459.79311,60,0,0,0,0,0,178,68,77,19364,48,40,-9,-2,79,benign,,,,,,,,,,,,,,,,,,,,,
28460.30844,60,0,0,0,0,0,-156,68,77,19362,49,40,0,-3,79,benign,,,,,,,,,,,,,,,,,,,,,
28460.82857,60,0,0,0,0,0,-145,68,78,19354,49,40,2,-5,79,benign,,,,,,,,,,,,,,,,,,,,,
28461.3586,60,0,0,0,0,0,-144,68,79,19358,50,40,0,-3,79,benign,,,,,,,,,,,,,,,,,,,,,
28461.87223,60,0,0,0,0,0,-167,68,78,19359,50,40,-1,-3,80,benign,,,,,,,,,,,,,,,,,,,,,
28462.4215,60,0,0,0,0,0,178,68,80,19363,51,40,-1,-3,81,benign,,,,,,,,,,,,,,,,,,,,,
28462.95002,70,0,0,0,0,0,176,68,80,19358,51,40,-1,-3,82,benign,,,,,,,,,,,,,,,,,,,,,
28463.48459,70,-4,0,0,-2,0,174,68,81,19361,52,40,0,-4,82,benign,,,,,,,,,,,,,,,,,,,,,
28464.014,70,-2,0,0,0,0,174,69,80,19357,52,40,-20,2,81,benign,,,,,,,,,,,,,,,,,,,,,
28464.54109,70,-2,0,0,0,0,174,69,80,19365,53,40,-38,2,81,benign,,,,,,,,,,,,,,,,,,,,,
28465.05921,70,-2,0,0,0,0,174,68,81,19354,53,40,-37,1,80,benign,,,,,,,,,,,,,,,,,,,,,
28465.577,70,-2,1,0,0,1,174,68,80,19354,54,40,-21,-2,82,benign,,,,,,,,,,,,,,,,,,,,,
28466.09694,70,0,0,0,-1,0,174,68,79,19360,54,40,-9,1,82,benign,,,,,,,,,,,,,,,,,,,,,
28466.62616,60,-1,0,0,0,0,174,68,79,19355,55,40,-5,0,81,benign,,,,,,,,,,,,,,,,,,,,,
28467.17039,60,0,0,0,0,0,174,68,79,19363,55,40,-2,-1,81,benign,,,,,,,,,,,,,,,,,,,,,
28467.72864,60,0,0,0,0,0,174,69,79,19357,56,40,-2,-3,81,benign,,,,,,,,,,,,,,,,,,,,,
28468.25797,60,-2,0,0,-8,0,174,69,80,19353,57,40,-1,-4,81,benign,,,,,,,,,,,,,,,,,,,,,
28468.78795,60,-3,0,0,0,0,174,68,80,19357,57,40,9,-5,81,benign,,,,,,,,,,,,,,,,,,,,,
28469.30624,70,-2,0,0,-1,0,174,68,79,19356,58,40,33,-8,78,benign,,,,,,,,,,,,,,,,,,,,,
28469.83493,60,-2,0,0,-1,0,174,68,77,19348,58,40,46,-8,76,benign,,,,,,,,,,,,,,,,,,,,,
28470.33563,60,-2,0,0,-1,0,174,68,76,19353,59,40,43,-11,81,benign,,,,,,,,,,,,,,,,,,,,,
28470.88119,60,-1,0,0,3,0,174,68,75,19354,59,40,30,-5,77,benign,,,,,,,,,,,,,,,,,,,,,
28471.39195,60,0,0,0,0,0,174,68,75,19352,60,40,24,-5,77,benign,,,,,,,,,,,,,,,,,,,,,
28471.92081,60,-1,0,0,0,0,174,68,79,19362,60,40,14,-4,81,benign,,,,,,,,,,,,,,,,,,,,,
28472.46889,60,-1,0,0,0,0,174,68,79,19364,61,40,4,-3,82,benign,,,,,,,,,,,,,,,,,,,,,
28472.99186,60,0,0,0,0,0,174,69,79,19360,61,40,1,-3,82,benign,,,,,,,,,,,,,,,,,,,,,
28473.51453,60,0,0,0,0,0,-168,69,79,19362,62,40,-2,-3,82,benign,,,,,,,,,,,,,,,,,,,,,
28474.04367,60,0,0,0,0,0,-138,68,80,19358,62,40,1,-4,82,benign,,,,,,,,,,,,,,,,,,,,,
28474.55938,60,0,0,0,0,0,-109,68,80,19358,63,40,0,-2,83,benign,,,,,,,,,,,,,,,,,,,,,
28475.12244,70,0,0,0,0,0,-67,68,81,19362,63,40,0,-2,84,benign,,,,,,,,,,,,,,,,,,,,,
28475.62446,70,0,0,0,0,0,-37,68,82,19357,64,40,0,-1,84,benign,,,,,,,,,,,,,,,,,,,,,
28476.15608,70,0,0,0,0,0,-14,68,81,19365,64,40,-3,0,84,benign,,,,,,,,,,,,,,,,,,,,,
28476.66872,60,0,0,0,0,0,-7,68,80,19363,65,40,-2,0,83,benign,,,,,,,,,,,,,,,,,,,,,
28477.1788,60,0,0,0,0,0,-7,68,80,19365,66,40,-200,-200,-200,benign,,,,,,,,,,,,,,,,,,,,,
28477.67983,60,0,0,0,0,0,-7,68,79,19363,66,40,-200,-200,-200,benign,,,,,,,,,,,,,,,,,,,,,
28478.19366,60,0,0,3,0,0,-7,68,70,19364,66,40,-200,-200,-200,benign,,,,,,,,,,,,,,,,,,,,,
28478.7235,30,0,0,4,0,0,-6,68,42,19324,67,40,-200,-200,-200,benign,,,,,,,,,,,,,,,,,,,,,
28479.25088,10,0,0,4,0,0,-7,68,18,19296,68,40,-200,-200,-200,benign,,,,,,,,,,,,,,,,,,,,,
28479.79344,0,0,0,1,0,1,-7,68,6553,18909,68,40,-200,-200,-200,benign,,,,,,,,,,,,,,,,,,,,,
28480.31251,0,0,0,0,0,1,-8,68,10,19185,69,40,-200,-200,-200,benign,,,,,,,,,,,,,,,,,,,,,
28519.8986,80,0,0,0,0,0,0,67,83,19376,7,29,-8,-5,85,benign,,,,,,,,,,,,,,,,,,,,,
28520.42943,80,0,0,0,0,0,0,67,84,19381,8,29,-8,-3,86,benign,,,,,,,,,,,,,,,,,,,,,
28520.95877,80,0,0,0,0,0,0,67,84,19380,8,29,-7,-3,87,benign,,,,,,,,,,,,,,,,,,,,,
28521.52027,80,0,0,0,0,0,0,68,84,19374,9,29,-8,-5,87,benign,,,,,,,,,,,,,,,,,,,,,
28522.04418,80,0,0,0,0,0,0,68,84,19375,9,29,-8,-5,87,benign,,,,,,,,,,,,,,,,,,,,,
28522.56835,80,0,0,0,0,0,0,67,84,19375,10,29,-9,-6,87,benign,,,,,,,,,,,,,,,,,,,,,
28523.09594,80,0,0,0,0,0,0,67,84,19373,10,29,-8,-7,86,benign,,,,,,,,,,,,,,,,,,,,,
28523.62305,80,1,0,0,0,0,0,67,83,19376,11,29,-8,-9,85,benign,,,,,,,,,,,,,,,,,,,,,
28524.13869,80,0,0,0,0,0,0,67,80,19367,12,29,-4,-5,84,benign,,,,,,,,,,,,,,,,,,,,,
28524.6692,70,0,0,0,0,0,0,67,80,19374,12,29,0,-7,83,benign,,,,,,,,,,,,,,,,,,,,,
28525.19834,80,0,0,0,0,0,0,67,81,19365,13,29,-4,-8,84,benign,,,,,,,,,,,,,,,,,,,,,
28525.74738,80,0,0,0,0,0,0,68,82,19374,13,29,-5,-15,85,benign,,,,,,,,,,,,,,,,,,,,,
28526.27834,80,0,0,0,0,0,0,68,82,19376,14,29,-5,-17,86,benign,,,,,,,,,,,,,,,,,,,,,
28526.80924,80,0,0,0,0,0,1,67,83,19373,14,29,-6,-20,85,benign,,,,,,,,,,,,,,,,,,,,,
28527.33808,80,0,0,0,0,0,1,67,83,19373,15,29,-7,-20,85,benign,,,,,,,,,,,,,,,,,,,,,
28527.86367,80,4,0,0,-4,0,0,67,83,19380,15,29,0,-21,86,benign,,,,,,,,,,,,,,,,,,,,,
28528.38182,80,2,0,0,-1,0,0,67,83,19368,16,29,14,-21,89,benign,,,,,,,,,,,,,,,,,,,,,
28528.91339,80,2,0,0,-1,-1,0,68,83,19372,16,29,27,-22,92,benign,,,,,,,,,,,,,,,,,,,,,
28529.43197,80,2,0,0,-1,0,0,68,83,19370,17,29,27,-19,96,benign,,,,,,,,,,,,,,,,,,,,,
28529.98193,80,2,0,0,-1,-1,0,67,82,19370,17,29,45,14,83,benign,,,,,,,,,,,,,,,,,,,,,
28530.51427,80,1,-1,0,-1,-1,0,67,83,19367,18,29,34,18,81,benign,,,,,,,,,,,,,,,,,,,,,
28531.03542,80,0,0,0,0,0,0,67,82,19372,18,29,25,16,83,benign,,,,,,,,,,,,,,,,,,,,,
28531.55753,80,1,-1,0,-3,-2,1,67,83,19368,19,29,26,11,84,benign,,,,,,,,,,,,,,,,,,,,,
28532.08663,80,1,-1,0,-1,0,1,67,82,19364,19,29,14,16,83,benign,,,,,,,,,,,,,,,,,,,,,
28532.59953,80,1,0,0,0,0,1,67,81,19371,20,29,7,9,83,benign,,,,,,,,,,,,,,,,,,,,,
28533.12837,80,0,0,0,0,-1,0,67,80,19367,20,29,5,7,82,benign,,,,,,,,,,,,,,,,,,,,,
28533.65496,80,0,-1,0,0,-1,0,67,80,19375,21,29,2,5,82,benign,,,,,,,,,,,,,,,,,,,,,
28534.18405,80,0,0,0,-2,-1,0,67,81,19370,22,29,2,6,82,benign,,,,,,,,,,,,,,,,,,,,,
28534.71414,80,0,0,0,0,0,0,67,82,19365,22,29,4,6,83,benign,,,,,,,,,,,,,,,,,,,,,
28535.23279,80,0,0,0,0,-1,0,67,83,19377,23,29,4,9,85,benign,,,,,,,,,,,,,,,,,,,,,
28535.7496,80,3,0,0,-8,0,0,67,84,19374,23,29,9,16,84,benign,,,,,,,,,,,,,,,,,,,,,
28536.279,80,3,0,0,0,0,0,67,84,19377,24,29,-8,18,85,benign,,,,,,,,,,,,,,,,,,,,,
28536.79499,80,2,0,0,-1,-1,0,68,84,19375,24,29,-28,28,81,benign,,,,,,,,,,,,,,,,,,,,,
28537.33792,80,2,0,0,-1,-1,0,68,83,19366,25,29,-39,27,82,benign,,,,,,,,,,,,,,,,,,,,,
28537.86261,80,2,-1,0,-1,-1,0,67,82,19366,25,29,-35,-24,85,benign,,,,,,,,,,,,,,,,,,,,,
28538.38143,80,2,-1,0,-1,-1,0,67,81,19369,26,29,-22,-21,83,benign,,,,,,,,,,,,,,,,,,,,,
28538.91226,80,0,0,0,1,1,0,67,80,19371,26,29,-17,-17,82,benign,,,,,,,,,,,,,,,,,,,,,
28539.42658,80,0,0,0,-3,-3,1,67,80,19366,27,29,-10,-16,82,benign,,,,,,,,,,,,,,,,,,,,,
28539.94519,80,0,-1,0,-1,-1,0,67,79,19370,27,29,-10,-15,81,benign,,,,,,,,,,,,,,,,,,,,,
28540.46271,80,0,-1,0,-1,0,0,67,79,19362,28,29,-6,-12,80,benign,,,,,,,,,,,,,,,,,,,,,
28540.99345,80,0,-1,0,0,-1,0,67,78,19364,28,29,-4,-7,81,benign,,,,,,,,,,,,,,,,,,,,,
28541.5164,80,0,0,0,0,1,0,68,79,19373,29,29,-4,-7,81,benign,,,,,,,,,,,,,,,,,,,,,
28542.03437,80,0,0,0,-1,0,1,68,80,19368,29,29,-2,-5,82,benign,,,,,,,,,,,,,,,,,,,,,
28542.54906,80,0,0,0,-1,0,0,67,81,19372,30,29,-3,-9,82,benign,,,,,,,,,,,,,,,,,,,,,
28543.06281,80,2,0,0,-8,0,0,67,82,19366,30,29,-3,-13,82,benign,,,,,,,,,,,,,,,,,,,,,
28543.57743,80,3,0,0,0,0,0,67,81,19365,31,29,6,-16,82,benign,,,,,,,,,,,,,,,,,,,,,
28544.10502,80,2,0,0,-1,-1,0,67,82,19367,31,29,26,-29,81,benign,,,,,,,,,,,,,,,,,,,,,
28544.64895,80,2,0,0,-1,-1,0,67,81,19364,32,29,29,-40,79,benign,,,,,,,,,,,,,,,,,,,,,
28545.16573,80,2,-1,0,-1,-1,0,67,80,19361,33,29,-25,-13,84,benign,,,,,,,,,,,,,,,,,,,,,
28545.68729,80,1,-1,0,0,-1,0,67,79,19366,33,29,-19,-14,81,benign,,,,,,,,,,,,,,,,,,,,,
28546.20232,70,0,0,0,0,0,0,67,78,19366,34,29,-9,-8,81,benign,,,,,,,,,,,,,,,,,,,,,
28546.72339,70,1,-1,0,-1,-1,0,67,78,19372,34,29,-10,-13,80,benign,,,,,,,,,,,,,,,,,,,,,
28547.2333,70,0,-1,0,1,0,0,67,78,19374,35,29,-5,-9,81,benign,,,,,,,,,,,,,,,,,,,,,
28547.74822,70,0,0,0,0,-1,0,67,78,19374,35,29,-3,-6,81,benign,,,,,,,,,,,,,,,,,,,,,
28548.27945,80,0,0,0,0,0,11,67,79,19377,36,29,-6,-5,82,benign,,,,,,,,,,,,,,,,,,,,,
28548.8057,80,0,0,0,0,-1,43,67,79,19381,36,29,-6,-6,82,benign,,,,,,,,,,,,,,,,,,,,,
28549.32428,80,0,0,0,0,-1,81,67,80,19382,37,29,-8,-12,82,benign,,,,,,,,,,,,,,,,,,,,,
28549.85335,80,0,0,0,0,0,105,68,80,19378,37,29,-2,-18,82,benign,,,,,,,,,,,,,,,,,,,,,
28550.38995,80,0,0,0,1,0,140,68,80,19380,38,29,-10,-20,82,benign,,,,,,,,,,,,,,,,,,,,,
28550.90959,80,0,0,0,0,0,167,68,80,19375,38,29,-11,-23,81,benign,,,,,,,,,,,,,,,,,,,,,
28551.43839,80,0,0,0,1,0,176,68,80,19379,39,29,-8,-20,83,benign,,,,,,,,,,,,,,,,,,,,,
28551.96825,80,0,0,0,0,0,178,67,80,19376,39,29,-11,-19,82,benign,,,,,,,,,,,,,,,,,,,,,
28552.4992,80,0,0,0,0,0,178,67,81,19371,40,29,-8,-12,84,benign,,,,,,,,,,,,,,,,,,,,,
28553.03075,80,0,0,0,0,0,178,67,81,19372,40,29,-7,-10,84,benign,,,,,,,,,,,,,,,,,,,,,
28553.56433,80,-4,0,0,-6,0,178,67,80,19370,41,29,-12,-9,83,benign,,,,,,,,,,,,,,,,,,,,,
28554.11835,80,-2,0,0,-1,0,178,67,80,19376,42,29,-35,-3,84,benign,,,,,,,,,,,,,,,,,,,,,
28554.6323,80,-2,0,0,0,0,178,67,80,19376,42,29,28,-23,82,benign,,,,,,,,,,,,,,,,,,,,,
28555.15416,80,-2,0,0,0,-1,179,67,79,19376,43,29,19,-21,80,benign,,,,,,,,,,,,,,,,,,,,,
28555.65781,80,-2,0,0,0,1,179,67,79,19377,43,29,5,-18,79,benign,,,,,,,,,,,,,,,,,,,,,
28556.18778,70,0,1,0,0,-3,179,66,78,19376,44,29,-2,-15,80,benign,,,,,,,,,,,,,,,,,,,,,
28556.71871,70,0,0,0,0,0,179,68,78,19375,44,29,-5,-15,80,benign,,,,,,,,,,,,,,,,,,,,,
28557.24785,80,0,-1,0,0,0,179,68,79,19374,45,29,-4,-12,80,benign,,,,,,,,,,,,,,,,,,,,,
28557.77546,80,0,0,0,0,0,178,67,79,19372,45,29,-4,-5,81,benign,,,,,,,,,,,,,,,,,,,,,
28558.29729,80,0,0,0,0,0,178,67,80,19374,46,29,-3,0,81,benign,,,,,,,,,,,,,,,,,,,,,
28558.84382,80,0,0,0,-2,0,178,67,80,19375,46,29,-4,1,81,benign,,,,,,,,,,,,,,,,,,,,,
28559.37399,80,-3,0,0,0,0,178,67,79,19381,47,29,-14,6,80,benign,,,,,,,,,,,,,,,,,,,,,
28559.92008,80,-2,0,0,0,0,179,67,79,19374,47,29,-33,13,78,benign,,,,,,,,,,,,,,,,,,,,,
28560.44856,80,-2,0,0,0,0,179,67,79,19369,48,29,-41,12,80,benign,,,,,,,,,,,,,,,,,,,,,
28560.95571,70,-2,0,0,0,0,179,67,77,19376,48,29,-31,-10,79,benign,,,,,,,,,,,,,,,,,,,,,
28561.48092,70,-1,1,0,0,-1,179,67,77,19374,49,29,-21,-13,77,benign,,,,,,,,,,,,,,,,,,,,,
28561.99166,70,0,0,0,0,0,179,67,75,19375,49,29,-8,-6,78,benign,,,,,,,,,,,,,,,,,,,,,
28562.52175,70,0,0,0,-2,-2,179,67,77,19377,50,29,-8,-9,78,benign,,,,,,,,,,,,,,,,,,,,,
28563.05028,70,0,0,0,0,0,178,67,77,19372,50,29,-4,-7,80,benign,,,,,,,,,,,,,,,,,,,,,
28563.59321,80,0,0,0,0,0,179,67,79,19379,51,29,-3,-4,81,benign,,,,,,,,,,,,,,,,,,,,,
28564.12077,80,0,0,0,0,0,178,67,79,19374,51,29,-5,-5,82,benign,,,,,,,,,,,,,,,,,,,,,
28564.63445,80,0,0,0,0,0,179,67,80,19373,52,29,-6,-7,83,benign,,,,,,,,,,,,,,,,,,,,,
28565.16489,80,-4,0,0,-3,0,178,68,81,19379,53,29,-9,-12,82,benign,,,,,,,,,,,,,,,,,,,,,
28565.71045,80,-2,0,0,0,-1,178,68,81,19367,53,29,13,-17,81,benign,,,,,,,,,,,,,,,,,,,,,
28566.24052,80,-2,0,0,-1,0,178,67,80,19367,54,29,34,-20,77,benign,,,,,,,,,,,,,,,,,,,,,
28566.80427,80,-2,0,0,-1,0,178,68,79,19373,54,29,45,-15,79,benign,,,,,,,,,,,,,,,,,,,,,
28567.33385,80,-2,0,0,-1,0,179,68,79,19375,55,29,56,-13,73,benign,,,,,,,,,,,,,,,,,,,,,
28567.85899,80,-1,0,0,1,0,178,68,78,19375,55,29,34,3,81,benign,,,,,,,,,,,,,,,,,,,,,
28568.38898,70,0,0,0,-1,0,178,68,79,19375,56,29,31,1,80,benign,,,,,,,,,,,,,,,,,,,,,
28568.90557,80,-2,0,0,0,0,178,68,80,19366,56,29,29,3,81,benign,,,,,,,,,,,,,,,,,,,,,
28569.43466,80,-1,0,0,0,0,178,68,80,19369,57,29,10,4,83,benign,,,,,,,,,,,,,,,,,,,,,
28569.96561,80,-1,0,0,0,0,178,67,81,19378,57,29,2,4,83,benign,,,,,,,,,,,,,,,,,,,,,
28570.47671,80,0,0,0,0,-1,178,67,81,19374,58,29,0,3,84,benign,,,,,,,,,,,,,,,,,,,,,
28571.0073,80,0,0,0,0,0,-172,67,82,19380,58,29,0,3,84,benign,,,,,,,,,,,,,,,,,,,,,
28571.51993,80,0,0,0,0,0,-136,67,84,19378,59,29,3,2,85,benign,,,,,,,,,,,,,,,,,,,,,
28572.05254,80,0,0,0,0,0,-106,67,83,19374,59,29,2,4,85,benign,,,,,,,,,,,,,,,,,,,,,
28572.57085,80,0,0,0,0,0,-76,67,82,19381,60,29,2,5,84,benign,,,,,,,,,,,,,,,,,,,,,
28573.13088,80,0,0,0,0,0,-40,68,81,19375,61,29,2,4,84,benign,,,,,,,,,,,,,,,,,,,,,
28573.63168,80,0,0,0,0,0,-13,68,79,19373,61,29,0,9,82,benign,,,,,,,,,,,,,,,,,,,,,
28574.16451,80,0,0,0,0,0,-3,68,80,19375,62,29,1,11,82,benign,,,,,,,,,,,,,,,,,,,,,
28574.70912,80,0,0,0,0,0,-2,68,81,19376,62,29,-200,-200,-200,benign,,,,,,,,,,,,,,,,,,,,,
28575.22674,80,0,0,0,0,0,-2,67,80,19382,63,29,-200,-200,-200,benign,,,,,,,,,,,,,,,,,,,,,
28575.7313,70,0,0,3,0,0,-2,67,72,19367,63,29,-200,-200,-200,benign,,,,,,,,,,,,,,,,,,,,,
28576.23412,50,0,0,4,0,0,-2,67,50,19351,64,29,-200,-200,-200,benign,,,,,,,,,,,,,,,,,,,,,
28576.7799,30,0,0,4,0,0,-2,67,26,19333,64,29,-200,-200,-200,benign,,,,,,,,,,,,,,,,,,,,,
28577.2809,10,0,0,3,0,0,-2,68,10,19202,65,29,-200,-200,-200,benign,,,,,,,,,,,,,,,,,,,,,
28577.80661,0,0,0,0,-1,0,-2,68,10,19129,65,29,-200,-200,-200,benign,,,,,,,,,,,,,,,,,,,,,
28578.33122,10,0,0,0,-1,0,-2,68,10,19227,66,29,-200,-200,-200,benign,,,,,,,,,,,,,,,,,,,,,
30721.40238,80,0,0,0,0,0,0,62,83,19684,7,82,-11,-4,85,benign,,,,,,,,,,,,,,,,,,,,,
30721.9298,80,0,0,0,0,0,0,62,83,19691,7,82,-10,-4,85,benign,,,,,,,,,,,,,,,,,,,,,
30722.44515,80,0,0,0,0,0,0,62,82,19687,8,82,-11,-2,85,benign,,,,,,,,,,,,,,,,,,,,,
30722.9736,80,0,0,0,-3,0,0,62,82,19687,8,82,-10,-4,85,benign,,,,,,,,,,,,,,,,,,,,,
30723.48549,80,0,0,0,0,0,0,62,82,19689,9,82,-7,-3,85,benign,,,,,,,,,,,,,,,,,,,,,
30724.01065,80,0,0,0,0,0,0,62,81,19686,10,82,-6,-4,84,benign,,,,,,,,,,,,,,,,,,,,,
30724.53792,80,0,0,0,0,0,0,63,81,19688,10,82,-7,-6,84,benign,,,,,,,,,,,,,,,,,,,,,
30725.06756,80,0,0,0,0,0,0,63,82,19683,11,82,-9,-11,84,benign,,,,,,,,,,,,,,,,,,,,,
30725.58642,80,0,0,0,0,0,0,62,83,19682,11,82,-10,-10,86,benign,,,,,,,,,,,,,,,,,,,,,
30726.14198,80,0,0,0,-1,0,0,62,83,19692,12,82,-8,-14,86,benign,,,,,,,,,,,,,,,,,,,,,
30726.67058,80,0,0,0,0,0,0,62,84,19687,12,82,-11,-16,86,benign,,,,,,,,,,,,,,,,,,,,,
30727.18748,80,3,0,0,-8,0,0,62,85,19681,13,82,-13,-18,85,benign,,,,,,,,,,,,,,,,,,,,,
30727.71443,80,2,0,0,0,0,0,62,84,19683,13,82,7,-18,87,benign,,,,,,,,,,,,,,,,,,,,,
30728.24065,80,2,0,0,-1,0,0,62,84,19686,14,82,21,-19,89,benign,,,,,,,,,,,,,,,,,,,,,
30728.75625,80,2,0,0,-1,0,0,63,83,19680,14,82,32,-20,89,benign,,,,,,,,,,,,,,,,,,,,,
30729.27063,80,2,0,0,-1,-1,0,63,83,19681,15,82,43,-14,93,benign,,,,,,,,,,,,,,,,,,,,,
30729.80069,80,2,-1,0,-1,-1,0,63,83,19683,15,82,40,12,83,benign,,,,,,,,,,,,,,,,,,,,,
30730.31281,80,0,0,0,2,1,0,63,81,19681,16,82,33,10,82,benign,,,,,,,,,,,,,,,,,,,,,
30730.83042,80,0,0,0,-7,-2,0,63,82,19693,16,82,33,13,80,benign,,,,,,,,,,,,,,,,,,,,,
30731.35781,80,2,0,0,-1,0,0,63,81,19672,17,82,30,13,80,benign,,,,,,,,,,,,,,,,,,,,,
30731.87394,80,1,0,0,0,0,0,63,80,19685,17,82,15,9,82,benign,,,,,,,,,,,,,,,,,,,,,
30732.40258,80,1,0,0,-1,-1,0,63,80,19677,18,82,7,7,81,benign,,,,,,,,,,,,,,,,,,,,,
30732.91822,80,0,0,0,0,0,0,63,79,19677,18,82,3,5,82,benign,,,,,,,,,,,,,,,,,,,,,
30733.44382,80,0,0,0,0,0,0,63,80,19683,19,82,2,5,81,benign,,,,,,,,,,,,,,,,,,,,,
30733.96969,80,0,0,0,0,0,0,63,80,19679,19,82,5,8,81,benign,,,,,,,,,,,,,,,,,,,,,
30734.49645,80,0,0,0,-3,0,0,63,80,19679,20,82,7,14,82,benign,,,,,,,,,,,,,,,,,,,,,
30735.01315,80,3,0,0,0,0,0,63,80,19680,21,82,-3,16,83,benign,,,,,,,,,,,,,,,,,,,,,
30735.52881,80,2,0,0,-1,-1,0,63,80,19685,21,82,-16,21,81,benign,,,,,,,,,,,,,,,,,,,,,
30736.05939,80,2,0,0,-1,0,0,63,80,19682,22,82,-31,28,78,benign,,,,,,,,,,,,,,,,,,,,,
30736.60293,80,2,0,0,-1,-1,0,64,80,19679,22,82,-40,29,80,benign,,,,,,,,,,,,,,,,,,,,,
30737.11987,80,2,-1,0,-1,-1,0,64,80,19679,23,82,-37,-28,81,benign,,,,,,,,,,,,,,,,,,,,,
30737.63053,80,2,-1,0,-1,-1,0,63,80,19679,23,82,-28,-20,84,benign,,,,,,,,,,,,,,,,,,,,,
30738.14423,80,1,-1,0,0,2,0,63,81,19684,24,82,-20,-20,81,benign,,,,,,,,,,,,,,,,,,,,,
30738.69123,80,0,0,0,-3,-3,0,64,81,19679,24,82,-18,-19,81,benign,,,,,,,,,,,,,,,,,,,,,
30739.20736,80,1,-1,0,-1,0,0,64,80,19682,25,82,-14,-17,82,benign,,,,,,,,,,,,,,,,,,,,,
30739.73346,80,1,-1,0,-1,0,0,63,79,19679,25,82,-9,-12,82,benign,,,,,,,,,,,,,,,,,,,,,
30740.25766,80,0,-1,0,-1,0,0,63,78,19680,26,82,-6,-7,81,benign,,,,,,,,,,,,,,,,,,,,,
30740.77452,80,0,0,0,0,0,0,65,79,19681,26,82,-5,-6,81,benign,,,,,,,,,,,,,,,,,,,,,
30741.29114,80,0,0,0,0,0,0,65,79,19689,27,82,-5,-6,82,benign,,,,,,,,,,,,,,,,,,,,,
30741.82189,80,0,0,0,-1,0,0,64,81,19687,27,82,-7,-7,82,benign,,,,,,,,,,,,,,,,,,,,,
30742.35198,80,0,0,0,-7,0,0,64,82,19686,28,82,-10,-12,83,benign,,,,,,,,,,,,,,,,,,,,,
30742.88111,80,3,0,0,0,0,0,64,82,19686,28,82,1,-13,84,benign,,,,,,,,,,,,,,,,,,,,,
30743.42421,80,2,0,0,-1,0,0,64,82,19691,29,82,13,-21,82,benign,,,,,,,,,,,,,,,,,,,,,
30743.95082,80,2,0,0,-1,0,0,64,82,19682,29,82,23,-28,81,benign,,,,,,,,,,,,,,,,,,,,,
30744.46898,80,2,0,0,-1,-1,0,64,82,19684,30,82,31,-29,81,benign,,,,,,,,,,,,,,,,,,,,,
30744.98176,80,2,0,0,-1,-1,0,64,81,19679,31,82,-44,-6,83,benign,,,,,,,,,,,,,,,,,,,,,
30745.5224,80,1,-1,0,-1,0,0,64,81,19680,31,82,-27,-12,84,benign,,,,,,,,,,,,,,,,,,,,,
30746.05082,80,0,0,0,0,0,0,64,81,19690,32,82,-22,-6,84,benign,,,,,,,,,,,,,,,,,,,,,
30746.57076,80,1,0,0,-4,-1,0,64,81,19686,32,82,-21,-9,84,benign,,,,,,,,,,,,,,,,,,,,,
30747.07222,80,1,0,0,-1,0,0,64,81,19688,33,82,-16,-11,84,benign,,,,,,,,,,,,,,,,,,,,,
30747.5909,80,1,0,0,-1,-1,0,64,81,19688,33,82,-6,-9,84,benign,,,,,,,,,,,,,,,,,,,,,
30748.11583,80,1,0,0,0,0,0,64,80,19687,34,82,-4,-8,83,benign,,,,,,,,,,,,,,,,,,,,,
30748.63529,80,0,0,0,0,0,8,64,80,19688,34,82,-2,-6,83,benign,,,,,,,,,,,,,,,,,,,,,
30749.1556,80,0,0,0,0,0,43,64,81,19685,35,82,-7,-6,83,benign,,,,,,,,,,,,,,,,,,,,,
30749.69936,80,0,0,0,0,0,73,64,81,19692,35,82,-2,-11,84,benign,,,,,,,,,,,,,,,,,,,,,
30750.22033,80,0,0,0,0,0,102,64,81,19688,36,82,-3,-14,84,benign,,,,,,,,,,,,,,,,,,,,,
30750.74916,80,0,0,0,0,0,132,65,82,19686,36,82,-4,-16,84,benign,,,,,,,,,,,,,,,,,,,,,
30751.28023,80,0,0,0,0,0,161,65,82,19689,37,82,-5,-20,84,benign,,,,,,,,,,,,,,,,,,,,,
30751.83955,80,0,0,0,0,0,177,65,81,19682,37,82,-6,-20,84,benign,,,,,,,,,,,,,,,,,,,,,
30752.37035,80,0,0,0,0,0,178,65,81,19686,38,82,-8,-14,85,benign,,,,,,,,,,,,,,,,,,,,,
30752.8977,80,0,0,0,0,0,178,64,81,19689,38,82,-9,-12,85,benign,,,,,,,,,,,,,,,,,,,,,
30753.39962,80,0,0,0,-5,0,178,64,82,19680,39,82,-5,-7,85,benign,,,,,,,,,,,,,,,,,,,,,
30753.92805,80,-4,0,0,1,0,178,64,80,19692,39,82,-15,-7,85,benign,,,,,,,,,,,,,,,,,,,,,
30754.44468,80,-2,0,0,0,0,178,64,80,19689,40,82,-36,-1,84,benign,,,,,,,,,,,,,,,,,,,,,
30754.97477,80,-2,0,0,-1,0,178,65,80,19686,40,82,-55,2,79,benign,,,,,,,,,,,,,,,,,,,,,
30755.50778,80,-2,0,0,0,-1,178,65,80,19693,41,82,5,-17,82,benign,,,,,,,,,,,,,,,,,,,,,
30756.02742,80,0,0,0,2,0,178,65,80,19690,42,82,-2,-16,82,benign,,,,,,,,,,,,,,,,,,,,,
30756.55559,80,0,0,0,1,3,178,65,79,19686,42,82,-5,-13,82,benign,,,,,,,,,,,,,,,,,,,,,
30757.08419,80,0,-1,0,-1,-2,178,65,80,19694,43,82,-5,-7,82,benign,,,,,,,,,,,,,,,,,,,,,
30757.60088,80,0,0,0,0,0,178,65,81,19690,43,82,-10,0,82,benign,,,,,,,,,,,,,,,,,,,,,
30758.12849,80,0,0,0,0,0,178,65,82,19686,44,82,-7,3,84,benign,,,,,,,,,,,,,,,,,,,,,
30758.63978,80,-3,0,0,-8,0,178,65,83,19695,44,82,-12,3,83,benign,,,,,,,,,,,,,,,,,,,,,
30759.17078,80,-2,0,0,0,0,178,65,82,19694,45,82,-30,17,80,benign,,,,,,,,,,,,,,,,,,,,,
30759.70087,80,-2,0,0,-1,0,178,64,83,19693,45,82,-39,19,81,benign,,,,,,,,,,,,,,,,,,,,,
30760.219,80,-2,0,0,-1,-1,178,64,84,19683,46,82,-34,-16,87,benign,,,,,,,,,,,,,,,,,,,,,
30760.73564,80,-1,1,0,-1,-1,178,65,84,19691,46,82,-28,-17,86,benign,,,,,,,,,,,,,,,,,,,,,
30761.24924,80,-1,1,0,-1,-1,178,65,83,19685,47,82,-20,-19,84,benign,,,,,,,,,,,,,,,,,,,,,
30761.78188,80,0,0,0,0,2,178,66,82,19695,47,82,-8,-8,85,benign,,,,,,,,,,,,,,,,,,,,,
30762.29523,80,0,0,0,-3,-3,178,66,82,19686,48,82,-10,-12,84,benign,,,,,,,,,,,,,,,,,,,,,
30762.85525,80,0,1,0,-1,-1,178,66,81,19689,48,82,-8,-9,84,benign,,,,,,,,,,,,,,,,,,,,,
30763.37187,80,0,1,0,1,0,178,66,80,19690,49,82,-10,-12,82,benign,,,,,,,,,,,,,,,,,,,,,
30763.90243,80,0,0,0,0,0,178,65,80,19695,49,82,-6,-6,82,benign,,,,,,,,,,,,,,,,,,,,,
30764.43153,80,0,0,0,-1,0,178,65,81,19691,50,82,-9,-11,83,benign,,,,,,,,,,,,,,,,,,,,,
30764.95912,80,-1,0,0,-8,0,178,65,82,19695,51,82,-15,-17,83,benign,,,,,,,,,,,,,,,,,,,,,
30765.48023,80,-3,0,0,0,-1,178,65,82,19690,51,82,0,-19,84,benign,,,,,,,,,,,,,,,,,,,,,
30765.99834,80,-2,0,0,-1,0,178,65,82,19687,51,82,13,-23,83,benign,,,,,,,,,,,,,,,,,,,,,
30766.52593,80,-2,0,0,-1,0,178,65,81,19690,52,82,30,-29,79,benign,,,,,,,,,,,,,,,,,,,,,
30767.05771,80,-2,0,0,-1,-1,178,66,81,19689,53,82,34,-26,83,benign,,,,,,,,,,,,,,,,,,,,,
30767.55847,80,-2,0,0,-1,-1,178,66,80,19691,53,82,51,-32,71,benign,,,,,,,,,,,,,,,,,,,,,
30768.08349,80,-1,1,0,-1,-1,178,66,80,19688,54,82,66,-27,61,benign,,,,,,,,,,,,,,,,,,,,,
30768.61157,80,-1,1,0,3,3,178,66,80,19695,54,82,34,10,84,benign,,,,,,,,,,,,,,,,,,,,,
30769.13863,80,0,0,0,-7,-2,178,65,80,19693,55,82,31,11,85,benign,,,,,,,,,,,,,,,,,,,,,
30769.66422,80,-2,0,0,0,-1,178,65,80,19692,55,82,28,9,85,benign,,,,,,,,,,,,,,,,,,,,,
30770.19514,80,-1,0,0,0,-1,178,65,80,19692,56,82,17,13,81,benign,,,,,,,,,,,,,,,,,,,,,
30770.72527,80,-1,1,0,0,-1,178,65,79,19690,56,82,5,8,82,benign,,,,,,,,,,,,,,,,,,,,,
30771.25279,80,0,1,0,1,-1,178,65,79,19697,57,82,3,6,82,benign,,,,,,,,,,,,,,,,,,,,,
30771.78053,80,0,0,0,-3,0,178,66,79,19692,57,82,2,2,82,benign,,,,,,,,,,,,,,,,,,,,,
30772.29852,80,0,0,0,0,-2,178,66,79,19692,58,81,2,3,82,benign,,,,,,,,,,,,,,,,,,,,,
30772.82508,80,0,0,0,0,0,-168,66,79,19689,58,81,2,4,82,benign,,,,,,,,,,,,,,,,,,,,,
30773.3657,80,0,0,0,0,-1,-133,66,81,19694,59,81,10,6,83,benign,,,,,,,,,,,,,,,,,,,,,
30773.86896,80,0,0,0,0,-1,-104,66,82,19699,59,81,10,10,85,benign,,,,,,,,,,,,,,,,,,,,,
30774.39856,80,0,0,0,1,0,-67,66,82,19704,60,81,10,20,83,benign,,,,,,,,,,,,,,,,,,,,,
30774.91169,80,0,0,0,0,0,-42,66,82,19696,60,81,13,15,85,benign,,,,,,,,,,,,,,,,,,,,,
30775.44278,80,0,0,0,0,1,-14,66,81,19698,61,81,11,20,83,benign,,,,,,,,,,,,,,,,,,,,,
30775.97194,80,0,0,0,0,1,-4,66,81,19704,61,81,16,18,83,benign,,,,,,,,,,,,,,,,,,,,,
30776.51872,80,0,0,0,0,0,-3,66,81,19704,62,81,-200,-200,-200,benign,,,,,,,,,,,,,,,,,,,,,
30777.04271,80,0,0,0,0,0,-3,66,81,19701,63,81,-200,-200,-200,benign,,,,,,,,,,,,,,,,,,,,,
30777.57286,70,0,0,2,0,0,-3,66,76,19696,63,81,-200,-200,-200,benign,,,,,,,,,,,,,,,,,,,,,
30778.10323,50,0,0,4,0,0,-3,66,51,19675,64,81,-200,-200,-200,benign,,,,,,,,,,,,,,,,,,,,,
30778.62148,30,0,0,4,0,0,-3,66,27,19650,64,81,-200,-200,-200,benign,,,,,,,,,,,,,,,,,,,,,
30779.13812,10,0,0,3,0,0,-3,66,10,19451,65,81,-200,-200,-200,benign,,,,,,,,,,,,,,,,,,,,,
30779.66203,0,0,0,1,0,0,1,66,10,19379,65,81,-200,-200,-200,benign,,,,,,,,,,,,,,,,,,,,,
30780.16273,0,-1,-1,0,0,0,1,66,10,19486,66,80,-200,-200,-200,benign,,,,,,,,,,,,,,,,,,,,,
30850.88887,80,0,0,0,0,0,0,66,85,19716,7,72,-7,-1,86,benign,,,,,,,,,,,,,,,,,,,,,
30851.42169,80,0,0,0,0,0,0,66,85,19711,8,72,-7,-1,86,benign,,,,,,,,,,,,,,,,,,,,,
30851.94932,80,0,0,0,0,0,0,66,85,19715,8,72,-8,-2,87,benign,,,,,,,,,,,,,,,,,,,,,
30852.47487,80,0,0,0,0,0,0,66,84,19718,9,72,-6,-2,87,benign,,,,,,,,,,,,,,,,,,,,,
30853.00599,80,0,0,0,0,0,0,67,84,19714,9,72,-9,-2,86,benign,,,,,,,,,,,,,,,,,,,,,
30853.52378,80,0,0,0,0,0,0,67,85,19715,10,72,-8,-2,86,benign,,,,,,,,,,,,,,,,,,,,,
30854.04911,80,0,0,0,0,0,0,66,84,19715,11,72,-10,-4,86,benign,,,,,,,,,,,,,,,,,,,,,
30854.57526,80,1,0,0,-1,0,0,66,84,19713,11,72,-8,-4,86,benign,,,,,,,,,,,,,,,,,,,,,
30855.08744,80,0,0,0,0,0,0,66,82,19715,12,72,-5,-2,85,benign,,,,,,,,,,,,,,,,,,,,,
30855.60358,80,0,0,0,0,0,0,66,82,19712,12,72,-3,-5,84,benign,,,,,,,,,,,,,,,,,,,,,
30856.13117,80,0,0,0,0,0,0,67,82,19712,13,72,-3,-8,85,benign,,,,,,,,,,,,,,,,,,,,,
30856.64359,80,0,0,0,0,0,0,66,83,19710,13,72,-4,-11,86,benign,,,,,,,,,,,,,,,,,,,,,
30857.18507,80,0,0,0,0,0,0,66,83,19714,14,72,-5,-13,86,benign,,,,,,,,,,,,,,,,,,,,,
30857.70227,80,0,0,0,0,0,0,66,83,19722,14,72,-5,-13,86,benign,,,,,,,,,,,,,,,,,,,,,
30858.2323,80,0,0,0,-1,0,0,66,83,19717,15,72,-2,-14,86,benign,,,,,,,,,,,,,,,,,,,,,
30858.76377,80,3,0,0,-8,0,0,67,84,19713,15,72,-3,-14,86,benign,,,,,,,,,,,,,,,,,,,,,
30859.29273,80,3,0,0,0,0,0,67,85,19713,16,72,17,-20,89,benign,,,,,,,,,,,,,,,,,,,,,
30859.80309,80,2,0,0,-1,0,0,66,84,19714,16,72,29,-18,94,benign,,,,,,,,,,,,,,,,,,,,,
30860.32869,80,2,0,0,-1,-1,0,66,83,19712,17,72,49,-15,87,benign,,,,,,,,,,,,,,,,,,,,,
30860.85919,80,2,0,0,-1,-1,0,67,83,19714,17,72,40,16,83,benign,,,,,,,,,,,,,,,,,,,,,
30861.38981,80,1,-1,0,0,1,0,67,82,19705,18,72,32,18,83,benign,,,,,,,,,,,,,,,,,,,,,
30861.9346,80,0,0,0,-4,-3,0,67,83,19715,18,72,30,20,80,benign,,,,,,,,,,,,,,,,,,,,,
30862.45063,80,2,-1,0,0,0,0,67,81,19708,19,72,24,16,81,benign,,,,,,,,,,,,,,,,,,,,,
30862.96925,80,1,-1,0,0,0,0,67,80,19707,19,72,13,9,81,benign,,,,,,,,,,,,,,,,,,,,,
30863.50016,80,1,0,0,-1,0,0,67,79,19705,20,72,6,4,81,benign,,,,,,,,,,,,,,,,,,,,,
30864.03004,80,0,0,0,-1,0,0,67,80,19699,21,72,4,4,81,benign,,,,,,,,,,,,,,,,,,,,,
30864.5576,80,0,0,0,0,0,0,67,80,19708,21,72,4,5,81,benign,,,,,,,,,,,,,,,,,,,,,
30865.08419,80,0,0,0,-1,0,0,66,80,19715,22,72,6,6,82,benign,,,,,,,,,,,,,,,,,,,,,
30865.61328,80,2,0,0,-8,0,0,66,82,19713,22,72,11,11,82,benign,,,,,,,,,,,,,,,,,,,,,
30866.1668,80,2,0,0,0,0,0,67,82,19714,23,72,0,15,84,benign,,,,,,,,,,,,,,,,,,,,,
30866.69569,80,2,0,0,-1,0,0,67,83,19707,23,72,-10,20,84,benign,,,,,,,,,,,,,,,,,,,,,
30867.19635,80,2,0,0,-1,0,0,67,82,19704,24,72,-27,28,80,benign,,,,,,,,,,,,,,,,,,,,,
30867.72459,80,2,0,0,-1,0,0,67,82,19707,24,72,-33,29,80,benign,,,,,,,,,,,,,,,,,,,,,
30868.25069,80,2,0,0,-1,0,0,67,81,19709,25,72,-39,-30,81,benign,,,,,,,,,,,,,,,,,,,,,
30868.77758,80,1,-1,0,-1,0,0,67,81,19707,25,72,-3,-36,82,benign,,,,,,,,,,,,,,,,,,,,,
30869.28825,80,0,0,0,1,0,0,67,81,19709,26,72,-23,-20,81,benign,,,,,,,,,,,,,,,,,,,,,
30869.81505,80,1,0,0,-4,-4,0,67,82,19712,26,72,-24,-24,81,benign,,,,,,,,,,,,,,,,,,,,,
30870.33217,80,1,-1,0,-1,0,0,67,82,19719,27,72,-17,-21,82,benign,,,,,,,,,,,,,,,,,,,,,
30870.85117,80,1,-1,0,0,0,0,67,81,19706,27,72,-10,-14,82,benign,,,,,,,,,,,,,,,,,,,,,
30871.36862,80,0,-1,0,-1,0,0,67,80,19707,28,72,-8,-11,81,benign,,,,,,,,,,,,,,,,,,,,,
30871.89516,80,0,0,0,-1,0,0,67,80,19707,28,72,-6,-5,81,benign,,,,,,,,,,,,,,,,,,,,,
30872.39614,80,0,0,0,0,0,0,67,79,19707,29,72,-5,-5,81,benign,,,,,,,,,,,,,,,,,,,,,
30872.92043,80,0,0,0,0,0,0,67,80,19710,29,72,-5,-6,81,benign,,,,,,,,,,,,,,,,,,,,,
30873.45083,80,0,0,0,-1,0,0,67,81,19703,30,72,-5,-9,82,benign,,,,,,,,,,,,,,,,,,,,,
30873.96463,80,4,0,0,-5,0,0,68,82,19708,30,72,-5,-15,82,benign,,,,,,,,,,,,,,,,,,,,,
30874.49122,80,2,0,0,-1,0,0,68,82,19707,31,72,6,-20,82,benign,,,,,,,,,,,,,,,,,,,,,
30875.01729,80,2,0,0,-1,-1,0,67,82,19712,31,72,20,-27,81,benign,,,,,,,,,,,,,,,,,,,,,
30875.53093,80,2,0,0,-1,-1,0,67,82,19707,32,72,24,-35,83,benign,,,,,,,,,,,,,,,,,,,,,
30876.058,80,2,0,0,-1,-1,0,67,82,19712,32,72,-41,-9,90,benign,,,,,,,,,,,,,,,,,,,,,
30876.58812,80,1,-1,0,-1,-1,0,67,82,19710,33,72,-28,-12,89,benign,,,,,,,,,,,,,,,,,,,,,
30877.10009,80,1,-1,0,-1,-1,0,67,81,19712,33,72,-26,-12,85,benign,,,,,,,,,,,,,,,,,,,,,
30877.63233,80,0,0,0,0,0,0,67,81,19704,34,72,-18,-16,83,benign,,,,,,,,,,,,,,,,,,,,,
30878.15828,80,1,0,0,-1,0,0,67,81,19709,35,72,-16,-17,83,benign,,,,,,,,,,,,,,,,,,,,,
30878.6853,80,0,0,0,-1,0,0,67,80,19703,35,72,-10,-14,83,benign,,,,,,,,,,,,,,,,,,,,,
30879.23062,80,0,-1,0,0,-1,0,68,79,19707,36,72,-6,-10,82,benign,,,,,,,,,,,,,,,,,,,,,
30879.74419,80,0,0,0,0,0,0,68,80,19707,36,72,-6,-8,82,benign,,,,,,,,,,,,,,,,,,,,,
30880.27078,80,0,0,0,-1,0,7,67,80,19711,37,72,-5,-5,83,benign,,,,,,,,,,,,,,,,,,,,,
30880.78782,80,0,0,0,0,-1,36,67,81,19709,37,72,-10,-10,84,benign,,,,,,,,,,,,,,,,,,,,,
30881.30513,80,0,0,0,0,-1,65,66,81,19709,38,72,-12,-13,83,benign,,,,,,,,,,,,,,,,,,,,,
30881.89831,80,0,0,0,0,0,100,67,80,19707,38,72,-10,-16,83,benign,,,,,,,,,,,,,,,,,,,,,
30882.42774,80,0,0,0,0,0,130,67,81,19704,39,72,-11,-18,83,benign,,,,,,,,,,,,,,,,,,,,,
30882.94462,80,0,0,0,0,0,159,67,80,19702,39,72,-10,-30,78,benign,,,,,,,,,,,,,,,,,,,,,
30883.47508,80,0,0,0,0,0,175,67,80,19706,40,72,-15,-23,81,benign,,,,,,,,,,,,,,,,,,,,,
30884.00534,80,0,0,0,0,0,178,67,81,19714,40,72,-14,-17,83,benign,,,,,,,,,,,,,,,,,,,,,
30884.52235,80,0,0,0,0,0,178,67,80,19713,41,72,-13,-16,82,benign,,,,,,,,,,,,,,,,,,,,,
30885.04686,80,0,0,0,-8,0,178,67,81,19709,42,72,-13,-13,82,benign,,,,,,,,,,,,,,,,,,,,,
30885.57783,80,-4,0,0,0,0,178,67,79,19704,42,72,-18,-8,83,benign,,,,,,,,,,,,,,,,,,,,,
30886.10693,80,-2,0,0,0,0,178,67,78,19713,43,72,-51,5,76,benign,,,,,,,,,,,,,,,,,,,,,
30886.63655,80,-2,0,0,0,0,178,67,78,19707,43,72,-51,3,81,benign,,,,,,,,,,,,,,,,,,,,,
30887.16962,80,-2,0,0,-1,-1,178,67,78,19711,44,72,15,-18,77,benign,,,,,,,,,,,,,,,,,,,,,
30887.69827,80,-2,0,0,0,2,178,67,78,19715,44,72,-3,-12,79,benign,,,,,,,,,,,,,,,,,,,,,
30888.21286,80,0,0,0,0,-4,178,67,78,19713,45,72,-6,-10,79,benign,,,,,,,,,,,,,,,,,,,,,
30888.72658,80,0,-1,0,1,2,178,67,78,19716,45,72,-8,-12,79,benign,,,,,,,,,,,,,,,,,,,,,
30889.27176,80,0,0,0,-2,-2,178,67,79,19710,46,72,-7,-5,80,benign,,,,,,,,,,,,,,,,,,,,,
30889.7979,80,0,0,0,0,0,178,67,79,19717,46,72,-6,0,80,benign,,,,,,,,,,,,,,,,,,,,,
30890.32523,80,0,0,0,-4,0,178,67,78,19717,47,72,-7,3,79,benign,,,,,,,,,,,,,,,,,,,,,
30890.85609,80,-4,0,0,1,-1,177,67,79,19717,47,72,-15,3,79,benign,,,,,,,,,,,,,,,,,,,,,
30891.3742,80,-2,0,0,0,0,178,67,80,19709,48,72,-36,14,78,benign,,,,,,,,,,,,,,,,,,,,,
30891.89852,80,-2,0,0,0,0,178,67,79,19715,48,72,-39,-9,82,benign,,,,,,,,,,,,,,,,,,,,,
30892.44457,80,-2,0,0,-1,0,178,66,78,19715,49,72,-26,-15,79,benign,,,,,,,,,,,,,,,,,,,,,
30892.95235,80,-1,1,0,0,-2,178,66,78,19712,49,72,-17,-17,79,benign,,,,,,,,,,,,,,,,,,,,,
30893.45418,80,0,0,0,0,2,178,67,77,19712,50,72,-5,-10,80,benign,,,,,,,,,,,,,,,,,,,,,
30894.01403,80,0,0,0,0,-3,178,67,78,19708,50,72,-7,-14,79,benign,,,,,,,,,,,,,,,,,,,,,
30894.55516,80,0,1,0,-1,0,178,67,78,19710,51,72,-7,-10,80,benign,,,,,,,,,,,,,,,,,,,,,
30895.08675,80,0,0,0,0,2,178,67,78,19711,52,72,-4,-5,80,benign,,,,,,,,,,,,,,,,,,,,,
30895.60735,80,0,0,0,0,0,178,67,78,19712,52,71,-6,-7,81,benign,,,,,,,,,,,,,,,,,,,,,
30896.13398,80,0,0,0,0,-1,178,68,79,19716,53,71,-9,-11,81,benign,,,,,,,,,,,,,,,,,,,,,
30896.65958,80,-3,0,0,-8,0,178,68,79,19714,53,71,-12,-17,80,benign,,,,,,,,,,,,,,,,,,,,,
30897.18338,80,-2,0,0,-1,0,178,67,79,19717,54,71,15,-23,79,benign,,,,,,,,,,,,,,,,,,,,,
30897.70015,80,-2,0,0,-1,0,178,67,80,19702,54,71,29,-27,78,benign,,,,,,,,,,,,,,,,,,,,,
30898.21335,80,-2,0,0,-1,0,178,67,80,19708,55,71,37,-27,79,benign,,,,,,,,,,,,,,,,,,,,,
30898.72697,80,-2,0,0,-1,0,178,67,78,19709,55,71,47,-33,72,benign,,,,,,,,,,,,,,,,,,,,,
30899.25697,80,-2,1,0,0,2,178,67,76,19712,56,71,44,9,73,benign,,,,,,,,,,,,,,,,,,,,,
30899.78196,70,0,0,0,0,0,178,67,76,19710,56,71,31,12,77,benign,,,,,,,,,,,,,,,,,,,,,
30900.28283,80,-2,1,0,-1,-1,178,67,77,19702,57,71,34,10,75,benign,,,,,,,,,,,,,,,,,,,,,
30900.79981,80,-1,0,0,0,0,178,67,79,19711,57,71,12,12,80,benign,,,,,,,,,,,,,,,,,,,,,
30901.32542,80,-1,0,0,0,-1,178,67,79,19715,58,71,6,8,82,benign,,,,,,,,,,,,,,,,,,,,,
30901.8352,80,0,0,0,0,-1,178,67,79,19717,58,70,4,5,82,benign,,,,,,,,,,,,,,,,,,,,,
30902.3481,80,0,0,0,0,0,-174,67,78,19711,59,70,2,4,80,benign,,,,,,,,,,,,,,,,,,,,,
30902.85907,80,0,0,0,0,0,-145,67,78,19723,59,70,6,4,80,benign,,,,,,,,,,,,,,,,,,,,,
30903.37404,80,0,0,0,0,0,-121,67,79,19716,60,70,9,3,81,benign,,,,,,,,,,,,,,,,,,,,,
30903.87444,80,0,0,0,0,0,-91,67,80,19712,60,70,5,5,83,benign,,,,,,,,,,,,,,,,,,,,,
30904.37472,80,0,0,0,0,0,-54,68,80,19720,61,70,6,3,82,benign,,,,,,,,,,,,,,,,,,,,,
30904.89767,80,0,0,0,0,0,-36,68,79,19718,61,70,5,4,82,benign,,,,,,,,,,,,,,,,,,,,,
30905.41719,80,0,0,0,0,0,-7,67,82,19719,62,70,3,9,83,benign,,,,,,,,,,,,,,,,,,,,,
30905.94799,80,0,0,0,0,0,-3,67,82,19721,62,70,5,9,84,benign,,,,,,,,,,,,,,,,,,,,,
30906.47135,80,0,0,0,0,0,-3,67,82,19713,63,70,-200,-200,-200,benign,,,,,,,,,,,,,,,,,,,,,
30906.98508,80,0,0,1,0,0,-3,67,79,19712,63,70,-200,-200,-200,benign,,,,,,,,,,,,,,,,,,,,,
30907.518,60,0,0,4,0,0,-3,68,57,19700,64,70,-200,-200,-200,benign,,,,,,,,,,,,,,,,,,,,,
30908.07551,30,0,0,4,0,0,-3,68,32,19671,64,70,-200,-200,-200,benign,,,,,,,,,,,,,,,,,,,,,
30908.60575,10,0,0,3,0,0,-3,67,10,19482,65,69,-200,-200,-200,benign,,,,,,,,,,,,,,,,,,,,,
30909.13493,0,0,0,0,-1,0,-3,67,10,19420,66,69,-200,-200,-200,benign,,,,,,,,,,,,,,,,,,,,,
30909.66193,0,0,0,0,0,0,-3,67,10,19571,66,69,-200,-200,-200,benign,,,,,,,,,,,,,,,,,,,,,
30941.5536,70,0,0,0,0,0,0,66,86,19725,2,63,-6,-1,88,benign,,,,,,,,,,,,,,,,,,,,,
30942.06224,70,0,0,0,0,0,0,66,86,19726,3,63,-8,0,88,benign,,,,,,,,,,,,,,,,,,,,,
30942.57309,70,0,0,0,0,0,0,66,85,19719,3,63,-7,0,87,benign,,,,,,,,,,,,,,,,,,,,,
30943.10464,70,0,0,0,0,0,0,66,84,19724,4,63,-6,0,86,benign,,,,,,,,,,,,,,,,,,,,,
30943.63132,70,0,0,0,0,0,0,66,83,19719,4,63,-6,-1,85,benign,,,,,,,,,,,,,,,,,,,,,
30944.16203,70,0,0,0,0,0,0,66,83,19725,5,63,-6,-2,85,benign,,,,,,,,,,,,,,,,,,,,,
30944.68803,70,0,0,0,0,0,0,66,84,19725,6,63,-5,-2,85,benign,,,,,,,,,,,,,,,,,,,,,
30945.21717,70,0,0,0,0,0,0,66,83,19725,6,63,-4,-2,85,benign,,,,,,,,,,,,,,,,,,,,,
30945.74435,70,0,0,0,0,0,0,66,82,19720,7,63,-4,-1,85,benign,,,,,,,,,,,,,,,,,,,,,
30946.27457,70,0,0,0,0,0,0,66,82,19719,7,63,-5,-4,84,benign,,,,,,,,,,,,,,,,,,,,,
30946.80401,70,0,0,0,0,0,0,66,83,19721,8,63,-5,-2,85,benign,,,,,,,,,,,,,,,,,,,,,
30947.31967,70,0,0,0,0,0,0,66,84,19720,8,63,-5,-2,86,benign,,,,,,,,,,,,,,,,,,,,,
30947.84744,70,0,0,0,0,0,0,66,84,19724,9,63,-5,-3,86,benign,,,,,,,,,,,,,,,,,,,,,
30948.37503,70,0,0,0,0,0,0,66,84,19722,9,63,-6,-3,86,benign,,,,,,,,,,,,,,,,,,,,,
30948.89165,70,0,0,0,0,0,0,66,84,19728,10,63,-7,-4,86,benign,,,,,,,,,,,,,,,,,,,,,
30949.46377,70,3,0,0,-8,0,0,66,85,19724,10,63,-2,-8,86,benign,,,,,,,,,,,,,,,,,,,,,
30949.99037,70,2,0,0,0,0,0,66,84,19728,11,63,7,-11,87,benign,,,,,,,,,,,,,,,,,,,,,
30950.58182,70,2,0,0,-1,-1,0,66,83,19721,11,63,29,-14,88,benign,,,,,,,,,,,,,,,,,,,,,
30951.10037,70,2,0,0,-1,0,0,66,83,19714,12,63,41,-11,92,benign,,,,,,,,,,,,,,,,,,,,,
30951.61131,70,2,0,0,-1,-1,0,66,82,19717,12,63,42,7,82,benign,,,,,,,,,,,,,,,,,,,,,
30952.14109,70,1,-1,0,0,-1,0,66,82,19718,13,63,32,6,80,benign,,,,,,,,,,,,,,,,,,,,,
30952.66939,70,0,0,0,0,0,0,66,81,19721,14,63,27,3,80,benign,,,,,,,,,,,,,,,,,,,,,
30953.18747,70,0,0,0,0,0,0,66,81,19727,14,63,28,7,80,benign,,,,,,,,,,,,,,,,,,,,,
30953.71935,70,0,0,0,0,-1,0,66,83,19727,15,63,29,14,80,benign,,,,,,,,,,,,,,,,,,,,,
30954.24844,70,4,0,0,0,0,0,66,83,19726,15,63,23,14,83,benign,,,,,,,,,,,,,,,,,,,,,
30954.79265,70,2,0,0,-1,-1,0,66,85,19719,16,63,1,17,85,benign,,,,,,,,,,,,,,,,,,,,,
30955.33628,70,2,0,0,-1,-1,0,66,85,19721,16,63,-7,16,87,benign,,,,,,,,,,,,,,,,,,,,,
30955.86315,70,2,0,0,-1,-1,0,66,84,19720,17,63,-21,27,82,benign,,,,,,,,,,,,,,,,,,,,,
30956.42377,70,2,0,0,-1,-1,0,67,84,19721,17,63,-32,26,82,benign,,,,,,,,,,,,,,,,,,,,,
30956.95335,70,2,-1,0,-1,-1,0,67,84,19727,18,63,-39,32,80,benign,,,,,,,,,,,,,,,,,,,,,
