timestamp_p,mid,x,y,z,pitch,roll,yaw,vgx,vgy,vgz,templ,temph,tof,h,bat,baro,time,agx,agy,agz,class,,,,,,,,,,,,,,,,
1683982117,-1,-100,-100,-100,0,0,-173,0,0,0,61,64,159,130,57,286.32,78,13,-6,-1001,evil_twin,,,,,,,,,,,,,,,,
1683982117,-1,-100,-100,-100,0,0,-173,0,0,0,61,65,159,130,57,286.34,78,4,-7,-993,evil_twin,,,,,,,,,,,,,,,,
1683982118,-1,-100,-100,-100,0,0,-173,0,0,0,61,65,159,130,57,286.34,78,4,-7,-993,evil_twin,,,,,,,,,,,,,,,,
1683982118,-1,-100,-100,-100,0,0,-173,0,0,0,61,65,159,130,57,286.34,78,15,-8,-1004,evil_twin,,,,,,,,,,,,,,,,
1683982118,-1,-100,-100,-100,0,0,-173,0,0,0,61,65,158,130,57,286.34,78,24,-12,-1003,evil_twin,,,,,,,,,,,,,,,,
1683982118,-1,-100,-100,-100,0,0,-173,0,0,0,61,65,160,130,57,286.31,78,17,-5,-1011,evil_twin,,,,,,,,,,,,,,,,
1683982118,-1,-100,-100,-100,0,0,-173,0,0,0,61,65,158,130,57,286.31,79,4,-8,-1013,evil_twin,,,,,,,,,,,,,,,,
1683982118,-1,-100,-100,-100,0,0,-173,0,0,0,61,65,159,130,57,286.25,79,8,-10,-999,evil_twin,,,,,,,,,,,,,,,,
1683982118,-1,-100,-100,-100,0,0,-173,0,0,0,61,65,159,130,57,286.3,79,4,-10,-992,evil_twin,,,,,,,,,,,,,,,,
1683982118,-1,-100,-100,-100,0,0,-173,0,0,0,61,65,159,130,57,286.35,79,10,-10,-997,evil_twin,,,,,,,,,,,,,,,,
1683982118,-1,-100,-100,-100,0,0,-173,0,0,0,61,65,159,130,57,286.36,79,3,-14,-1004,evil_twin,,,,,,,,,,,,,,,,
1683982118,-1,-100,-100,-100,0,0,-173,0,0,0,61,65,159,130,57,286.23,79,7,-11,-988,evil_twin,,,,,,,,,,,,,,,,
1683982118,-1,-100,-100,-100,0,0,-173,0,0,0,61,65,158,130,57,286.3,79,12,-7,-1005,evil_twin,,,,,,,,,,,,,,,,
1683982119,-1,-100,-100,-100,0,0,-173,0,0,0,61,65,158,130,57,286.3,79,12,-7,-1005,evil_twin,,,,,,,,,,,,,,,,
1683982119,-1,-100,-100,-100,0,0,-173,0,0,0,61,65,160,130,57,286.27,79,12,3,-998,evil_twin,,,,,,,,,,,,,,,,
1683982119,-1,-100,-100,-100,0,0,-173,0,0,0,61,65,159,130,57,286.26,79,9,0,-1000,evil_twin,,,,,,,,,,,,,,,,
1683982119,-1,-100,-100,-100,0,0,-173,0,0,0,61,65,159,130,57,286.31,79,23,0,-1003,evil_twin,,,,,,,,,,,,,,,,
1683982119,-1,-100,-100,-100,0,0,-173,0,0,0,61,65,158,130,57,286.27,80,23,-10,-992,evil_twin,,,,,,,,,,,,,,,,
1683982119,-1,-100,-100,-100,0,0,-173,0,0,0,61,65,158,130,57,286.27,80,0,-10,-996,evil_twin,,,,,,,,,,,,,,,,
1683982119,-1,-100,-100,-100,0,0,-173,0,0,0,61,65,159,130,57,286.3,80,0,-9,-1008,evil_twin,,,,,,,,,,,,,,,,
1683982119,-1,-100,-100,-100,0,0,-173,0,0,0,61,65,159,130,57,286.31,80,13,-6,-995,evil_twin,,,,,,,,,,,,,,,,
1683982119,-1,-100,-100,-100,0,0,-173,0,0,0,61,65,159,130,57,286.3,80,5,-10,-990,evil_twin,,,,,,,,,,,,,,,,
1683982119,-1,-100,-100,-100,0,0,-173,0,0,0,61,65,159,130,57,286.28,80,5,-4,-997,evil_twin,,,,,,,,,,,,,,,,
1683982120,-1,-100,-100,-100,0,0,-173,0,0,0,61,65,159,130,57,286.28,80,5,-4,-997,evil_twin,,,,,,,,,,,,,,,,
1683982120,-1,-100,-100,-100,0,0,-173,0,0,0,62,64,158,130,57,286.3,80,-8,-10,-1007,evil_twin,,,,,,,,,,,,,,,,
1683982120,-1,-100,-100,-100,0,0,-173,0,0,0,62,64,159,130,57,286.29,80,13,-6,-995,evil_twin,,,,,,,,,,,,,,,,
1683982120,-1,-100,-100,-100,0,0,-173,0,0,0,62,64,158,130,57,286.31,80,16,-2,-1002,evil_twin,,,,,,,,,,,,,,,,
1683982120,-1,-100,-100,-100,0,0,-173,0,0,0,62,64,158,130,57,286.28,80,8,-7,-999,evil_twin,,,,,,,,,,,,,,,,
1683982120,-1,-100,-100,-100,0,0,-173,0,0,0,62,64,158,130,57,286.3,81,7,-7,-1006,evil_twin,,,,,,,,,,,,,,,,
1683982120,-1,-100,-100,-100,0,0,-173,0,0,0,62,64,158,130,57,286.27,81,8,0,-996,evil_twin,,,,,,,,,,,,,,,,
1683982120,-1,-100,-100,-100,0,0,-173,0,0,0,62,64,159,130,57,286.35,81,7,5,-1009,evil_twin,,,,,,,,,,,,,,,,
1683982120,-1,-100,-100,-100,0,0,-173,0,0,0,62,64,158,130,57,286.33,81,0,-5,-1006,evil_twin,,,,,,,,,,,,,,,,
1683982120,-1,-100,-100,-100,0,0,-173,0,0,0,62,64,159,130,57,286.29,81,8,-5,-992,evil_twin,,,,,,,,,,,,,,,,
1683982120,-1,-100,-100,-100,0,0,-173,0,0,0,62,64,158,130,57,286.28,81,8,-4,-994,evil_twin,,,,,,,,,,,,,,,,
1683982120,-1,-100,-100,-100,0,0,-173,0,0,0,62,64,158,130,57,286.34,81,-5,-10,-1000,evil_twin,,,,,,,,,,,,,,,,
1683982121,-1,-100,-100,-100,0,0,-173,0,0,0,62,64,158,130,57,286.34,81,-5,-10,-1000,evil_twin,,,,,,,,,,,,,,,,
1683982121,-1,-100,-100,-100,0,0,-173,0,0,0,62,64,158,130,57,286.35,81,2,-7,-1001,evil_twin,,,,,,,,,,,,,,,,
1683982121,-1,-100,-100,-100,0,0,-173,0,0,0,62,64,159,130,57,286.3,81,3,-4,-1006,evil_twin,,,,,,,,,,,,,,,,
1683982121,-1,-100,-100,-100,0,0,-173,0,0,0,62,64,158,130,57,286.33,81,-1,4,-1017,evil_twin,,,,,,,,,,,,,,,,
1683982121,-1,-100,-100,-100,0,0,-173,0,0,0,62,64,158,130,57,286.33,82,11,-9,-998,evil_twin,,,,,,,,,,,,,,,,
1683982121,-1,-100,-100,-100,0,0,-173,0,0,0,62,64,158,130,57,286.3,82,7,-2,-1003,evil_twin,,,,,,,,,,,,,,,,
1683982121,-1,-100,-100,-100,0,0,-173,0,0,0,62,64,158,130,57,286.29,82,-4,1,-993,evil_twin,,,,,,,,,,,,,,,,
1683982121,-1,-100,-100,-100,0,0,-173,0,0,0,62,64,157,130,57,286.33,82,4,-7,-1003,evil_twin,,,,,,,,,,,,,,,,
1683982121,-1,-100,-100,-100,0,0,-173,0,0,0,62,64,157,130,57,286.23,82,2,1,-1007,evil_twin,,,,,,,,,,,,,,,,
1683982121,-1,-100,-100,-100,0,0,-173,0,0,0,62,64,158,130,57,286.38,82,4,-13,-984,evil_twin,,,,,,,,,,,,,,,,
1683982121,-1,-100,-100,-100,0,0,-173,0,0,0,61,64,157,130,57,286.36,82,0,2,-1008,evil_twin,,,,,,,,,,,,,,,,
1683982122,-1,-100,-100,-100,0,0,-173,0,0,0,61,64,157,130,57,286.36,82,0,2,-1008,evil_twin,,,,,,,,,,,,,,,,
1683982122,-1,-100,-100,-100,0,0,-173,0,0,0,61,64,157,130,57,286.35,82,11,3,-1015,evil_twin,,,,,,,,,,,,,,,,
1683982122,-1,-100,-100,-100,0,0,-173,0,0,0,61,64,158,130,57,286.33,82,-1,-1,-988,evil_twin,,,,,,,,,,,,,,,,
1683982122,-1,-100,-100,-100,0,0,-173,0,0,0,61,64,157,130,57,286.33,82,5,-11,-993,evil_twin,,,,,,,,,,,,,,,,
1683982122,-1,-100,-100,-100,0,0,-173,0,0,0,61,64,157,130,57,286.34,83,0,-12,-999,evil_twin,,,,,,,,,,,,,,,,
1683982122,-1,-100,-100,-100,0,0,-173,0,0,0,61,64,157,130,57,286.3,83,-4,-10,-992,evil_twin,,,,,,,,,,,,,,,,
1683982122,-1,-100,-100,-100,0,0,-173,0,0,0,61,64,157,130,57,286.29,83,8,-13,-988,evil_twin,,,,,,,,,,,,,,,,
1683982122,-1,-100,-100,-100,0,0,-173,0,0,0,61,64,158,130,57,286.26,83,11,-3,-993,evil_twin,,,,,,,,,,,,,,,,
1683982122,-1,-100,-100,-100,0,0,-173,0,0,0,61,64,158,130,57,286.26,83,2,0,-1007,evil_twin,,,,,,,,,,,,,,,,
1683982122,-1,-100,-100,-100,-2,0,-173,0,0,0,61,64,158,130,57,286.29,83,13,-8,-1028,evil_twin,,,,,,,,,,,,,,,,
1683982122,-1,-100,-100,-100,-7,0,-173,0,0,0,62,65,159,130,57,286.29,83,9,4,-998,evil_twin,,,,,,,,,,,,,,,,
1683982123,-1,-100,-100,-100,-7,0,-173,0,0,0,62,65,159,130,57,286.29,83,9,4,-998,evil_twin,,,,,,,,,,,,,,,,
1683982123,-1,-100,-100,-100,-5,0,-173,2,0,0,62,65,158,130,57,286.3,83,-5,4,-995,evil_twin,,,,,,,,,,,,,,,,
1683982123,-1,-100,-100,-100,-2,-1,-173,3,0,0,62,65,158,130,57,286.31,83,-25,-10,-997,evil_twin,,,,,,,,,,,,,,,,
1683982123,-1,-100,-100,-100,-1,0,-173,3,0,0,62,65,158,130,57,286.3,83,-12,3,-1015,evil_twin,,,,,,,,,,,,,,,,
1683982123,-1,-100,-100,-100,0,0,-173,3,0,0,62,65,158,130,57,286.31,84,-7,2,-1016,evil_twin,,,,,,,,,,,,,,,,
1683982123,-1,-100,-100,-100,0,0,-173,2,0,0,62,65,158,130,57,286.34,84,-3,-10,-974,evil_twin,,,,,,,,,,,,,,,,
1683982123,-1,-100,-100,-100,0,0,-173,2,0,0,62,65,158,130,57,286.3,84,-11,1,-1008,evil_twin,,,,,,,,,,,,,,,,
1683982123,-1,-100,-100,-100,0,0,-173,2,0,0,62,65,157,130,57,286.35,84,2,-5,-995,evil_twin,,,,,,,,,,,,,,,,
1683982123,-1,-100,-100,-100,0,0,-173,2,0,0,62,65,157,130,57,286.36,84,4,0,-1003,evil_twin,,,,,,,,,,,,,,,,
1683982123,-1,-100,-100,-100,0,0,-173,2,0,0,62,65,156,130,57,286.36,84,-1,3,-995,evil_twin,,,,,,,,,,,,,,,,
1683982123,-1,-100,-100,-100,0,0,-173,2,0,0,62,65,156,130,57,286.34,84,0,0,-1006,evil_twin,,,,,,,,,,,,,,,,
1683982124,-1,-100,-100,-100,0,0,-173,2,0,0,62,65,156,130,57,286.34,84,0,0,-1006,evil_twin,,,,,,,,,,,,,,,,
1683982124,-1,-100,-100,-100,0,0,-173,2,0,0,62,65,156,120,57,286.41,84,-5,3,-994,evil_twin,,,,,,,,,,,,,,,,
1683982124,-1,-100,-100,-100,0,0,-173,2,0,0,62,65,155,120,57,286.32,84,-5,0,-1002,evil_twin,,,,,,,,,,,,,,,,
1683982124,-1,-100,-100,-100,0,0,-173,2,0,0,62,65,156,120,57,286.32,84,-3,0,-1003,evil_twin,,,,,,,,,,,,,,,,
1683982124,-1,-100,-100,-100,1,0,-173,2,0,0,62,65,155,120,57,286.3,85,7,12,-1028,evil_twin,,,,,,,,,,,,,,,,
1683982124,-1,-100,-100,-100,4,0,-173,1,0,0,62,65,156,120,57,286.31,85,-4,8,-995,evil_twin,,,,,,,,,,,,,,,,
1683982124,-1,-100,-100,-100,3,0,-173,1,0,0,62,65,156,120,56,286.31,85,1,-5,-988,evil_twin,,,,,,,,,,,,,,,,
1683982124,-1,-100,-100,-100,2,0,-173,0,0,0,62,65,156,120,56,286.34,85,4,0,-1015,evil_twin,,,,,,,,,,,,,,,,
1683982124,-1,-100,-100,-100,1,0,-173,0,0,0,62,65,156,120,56,286.31,85,7,1,-1008,evil_twin,,,,,,,,,,,,,,,,
1683982124,-1,-100,-100,-100,6,0,-173,0,0,0,62,65,159,130,56,286.35,85,14,3,-1000,evil_twin,,,,,,,,,,,,,,,,
1683982125,-1,-100,-100,-100,6,0,-173,0,0,0,62,65,159,130,56,286.35,85,14,3,-1000,evil_twin,,,,,,,,,,,,,,,,
1683982125,-1,-100,-100,-100,8,0,-173,-1,0,0,61,65,160,130,56,286.33,85,13,6,-1035,evil_twin,,,,,,,,,,,,,,,,
1683982125,-1,-100,-100,-100,6,0,-173,-2,0,0,61,65,158,130,56,286.41,85,30,1,-1017,evil_twin,,,,,,,,,,,,,,,,
1683982125,-1,-100,-100,-100,3,0,-173,-3,0,0,61,65,157,130,56,286.35,85,31,0,-999,evil_twin,,,,,,,,,,,,,,,,
1683982125,-1,-100,-100,-100,1,0,-173,-3,0,0,61,65,157,130,56,286.33,85,40,-9,-984,evil_twin,,,,,,,,,,,,,,,,
1683982125,-1,-100,-100,-100,0,0,-173,-3,0,0,61,65,159,130,56,286.3,86,33,-8,-989,evil_twin,,,,,,,,,,,,,,,,
1683982125,-1,-100,-100,-100,0,0,-173,-3,0,0,61,65,160,130,56,286.3,86,27,-6,-1001,evil_twin,,,,,,,,,,,,,,,,
1683982125,-1,-100,-100,-100,0,0,-173,-2,0,0,61,65,159,130,56,286.33,86,14,-2,-985,evil_twin,,,,,,,,,,,,,,,,
1683982125,-1,-100,-100,-100,0,0,-173,-2,0,0,61,65,160,130,56,286.3,86,26,-18,-986,evil_twin,,,,,,,,,,,,,,,,
1683982125,-1,-100,-100,-100,0,0,-173,-2,0,0,61,65,159,130,56,286.34,86,18,-6,-988,evil_twin,,,,,,,,,,,,,,,,
1683982125,-1,-100,-100,-100,0,0,-173,-2,0,0,61,65,159,130,56,286.36,86,35,-15,-993,evil_twin,,,,,,,,,,,,,,,,
1683982125,-1,-100,-100,-100,0,0,-173,-2,0,0,62,65,160,130,56,286.27,86,28,-19,-994,evil_twin,,,,,,,,,,,,,,,,
1683982126,-1,-100,-100,-100,0,0,-173,-2,0,0,62,65,160,130,56,286.27,86,28,-19,-994,evil_twin,,,,,,,,,,,,,,,,
1683982126,-1,-100,-100,-100,0,0,-173,-2,0,0,62,65,160,130,56,286.36,86,22,-13,-991,evil_twin,,,,,,,,,,,,,,,,
1683982126,-1,-100,-100,-100,0,0,-173,-2,0,0,62,65,161,130,56,286.22,86,27,-7,-1008,evil_twin,,,,,,,,,,,,,,,,
1683982126,-1,-100,-100,-100,0,0,-173,-2,0,0,62,65,160,130,56,286.38,86,23,-11,-1004,evil_twin,,,,,,,,,,,,,,,,
1683982126,-1,-100,-100,-100,0,0,-173,-2,0,0,62,65,161,130,56,286.32,87,12,-9,-996,evil_twin,,,,,,,,,,,,,,,,
1683982126,-1,-100,-100,-100,-1,0,-173,-2,0,0,62,65,161,130,56,286.29,87,23,-4,-992,evil_twin,,,,,,,,,,,,,,,,
1683982126,-1,-100,-100,-100,-4,0,-173,-1,0,0,62,65,163,130,56,286.37,87,16,0,-993,evil_twin,,,,,,,,,,,,,,,,
1683982126,-1,-100,-100,-100,-2,0,-173,0,0,0,62,65,162,130,56,286.25,87,-1,-11,-989,evil_twin,,,,,,,,,,,,,,,,
1683982126,-1,-100,-100,-100,0,0,-173,0,0,0,62,65,161,130,56,286.33,87,5,-4,-996,evil_twin,,,,,,,,,,,,,,,,
1683982126,-1,-100,-100,-100,0,0,-173,0,0,0,62,65,161,130,56,286.25,87,-1,14,-1009,evil_twin,,,,,,,,,,,,,,,,
1683982127,-1,-100,-100,-100,0,0,-173,0,0,0,62,65,161,130,56,286.25,87,-1,14,-1009,evil_twin,,,,,,,,,,,,,,,,
1683982127,-1,-100,-100,-100,0,0,-178,0,0,0,61,65,161,130,56,286.31,87,8,1,-997,evil_twin,,,,,,,,,,,,,,,,
1683982127,-1,-100,-100,-100,0,0,175,0,0,0,61,65,161,130,56,286.31,87,11,-1,-998,evil_twin,,,,,,,,,,,,,,,,
1683982127,-1,-100,-100,-100,0,0,169,0,0,0,61,65,161,130,56,286.3,87,0,3,-969,evil_twin,,,,,,,,,,,,,,,,
1683982127,-1,-100,-100,-100,0,0,163,0,0,0,61,65,161,130,56,286.26,87,26,-6,-989,evil_twin,,,,,,,,,,,,,,,,
1683982127,-1,-100,-100,-100,0,0,157,0,0,0,61,65,160,130,56,286.26,88,1,-6,-1005,evil_twin,,,,,,,,,,,,,,,,
1683982127,-1,-100,-100,-100,0,0,151,0,0,0,61,65,160,130,56,286.29,88,4,-5,-999,evil_twin,,,,,,,,,,,,,,,,
1683982127,-1,-100,-100,-100,0,0,145,0,0,0,61,65,161,130,56,286.33,88,20,-7,-989,evil_twin,,,,,,,,,,,,,,,,
1683982127,-1,-100,-100,-100,0,0,139,0,0,0,61,65,160,130,56,286.31,88,7,0,-1006,evil_twin,,,,,,,,,,,,,,,,
1683982127,-1,-100,-100,-100,0,0,133,0,0,0,61,65,160,130,56,286.27,88,0,2,-993,evil_twin,,,,,,,,,,,,,,,,
1683982127,-1,-100,-100,-100,1,0,127,0,0,0,61,65,161,130,56,286.33,88,1,0,-989,evil_twin,,,,,,,,,,,,,,,,
1683982128,-1,-100,-100,-100,1,0,127,0,0,0,61,65,161,130,56,286.33,88,1,0,-989,evil_twin,,,,,,,,,,,,,,,,
1683982128,-1,-100,-100,-100,0,0,120,0,0,0,62,64,160,130,56,286.29,88,11,10,-1012,evil_twin,,,,,,,,,,,,,,,,
1683982128,-1,-100,-100,-100,0,0,115,0,0,0,62,64,160,130,56,286.26,88,2,2,-1000,evil_twin,,,,,,,,,,,,,,,,
1683982128,-1,-100,-100,-100,0,0,110,0,0,0,62,64,159,130,56,286.29,88,-2,4,-999,evil_twin,,,,,,,,,,,,,,,,
1683982128,-1,-100,-100,-100,0,0,106,0,0,0,62,64,160,130,56,286.31,88,10,7,-994,evil_twin,,,,,,,,,,,,,,,,
1683982128,-1,-100,-100,-100,0,0,104,0,0,0,62,64,160,130,56,286.27,89,-5,-1,-1002,evil_twin,,,,,,,,,,,,,,,,
1683982128,-1,-100,-100,-100,0,0,101,0,0,0,62,64,159,130,56,286.29,89,3,9,-996,evil_twin,,,,,,,,,,,,,,,,
1683982128,-1,-100,-100,-100,0,0,100,0,0,0,62,64,159,130,56,286.27,89,1,2,-993,evil_twin,,,,,,,,,,,,,,,,
1683982128,-1,-100,-100,-100,0,0,99,0,0,0,62,64,159,130,56,286.21,89,14,7,-992,evil_twin,,,,,,,,,,,,,,,,
1683982128,-1,-100,-100,-100,0,0,98,0,0,0,62,64,158,130,56,286.23,89,-11,2,-995,evil_twin,,,,,,,,,,,,,,,,
1683982128,-1,-100,-100,-100,0,0,97,0,0,0,62,64,158,130,56,286.23,89,-4,10,-1010,evil_twin,,,,,,,,,,,,,,,,
1683982128,-1,-100,-100,-100,0,0,97,0,0,0,62,65,158,130,56,286.27,89,9,2,-1006,evil_twin,,,,,,,,,,,,,,,,
1683982129,-1,-100,-100,-100,0,0,97,0,0,0,62,65,158,130,56,286.27,89,9,2,-1006,evil_twin,,,,,,,,,,,,,,,,
1683982129,-1,-100,-100,-100,0,0,97,0,0,0,62,65,157,130,56,286.25,89,7,0,-1006,evil_twin,,,,,,,,,,,,,,,,
1683982129,-1,-100,-100,-100,0,0,96,0,0,0,62,65,158,130,56,286.29,89,2,2,-1013,evil_twin,,,,,,,,,,,,,,,,
1683982129,-1,-100,-100,-100,0,1,96,0,0,0,62,65,157,120,56,286.27,89,9,14,-1005,evil_twin,,,,,,,,,,,,,,,,
1683982129,-1,-100,-100,-100,0,7,96,0,0,0,62,65,157,120,56,286.29,90,11,10,-1021,evil_twin,,,,,,,,,,,,,,,,
1683982129,-1,-100,-100,-100,-1,6,95,1,0,0,62,65,157,120,56,286.31,90,0,0,-1009,evil_twin,,,,,,,,,,,,,,,,
1683982129,-1,-100,-100,-100,0,4,96,2,0,0,62,65,156,120,55,286.3,90,-5,-7,-1006,evil_twin,,,,,,,,,,,,,,,,
1683982129,-1,-100,-100,-100,0,1,96,3,0,0,62,65,155,120,55,286.28,90,-12,-9,-1018,evil_twin,,,,,,,,,,,,,,,,
1683982129,-1,-100,-100,-100,0,0,96,3,0,0,62,65,156,120,55,286.36,90,5,-14,-1014,evil_twin,,,,,,,,,,,,,,,,
1683982129,-1,-100,-100,-100,0,-1,96,3,0,0,62,65,155,120,55,286.32,90,0,-8,-999,evil_twin,,,,,,,,,,,,,,,,
1683982130,-1,-100,-100,-100,0,-1,96,3,0,0,62,65,155,120,55,286.32,90,0,-8,-999,evil_twin,,,,,,,,,,,,,,,,
1683982130,-1,-100,-100,-100,0,0,96,2,0,0,62,64,155,120,55,286.3,90,-5,-10,-1001,evil_twin,,,,,,,,,,,,,,,,
1683982130,-1,-100,-100,-100,0,0,96,2,0,0,62,64,156,120,55,286.21,90,-11,-16,-1003,evil_twin,,,,,,,,,,,,,,,,
1683982130,-1,-100,-100,-100,0,0,96,2,0,0,62,64,156,120,55,286.25,90,6,-11,-999,evil_twin,,,,,,,,,,,,,,,,
1683982130,-1,-100,-100,-100,0,0,96,2,0,0,62,64,156,120,55,286.37,90,9,-17,-992,evil_twin,,,,,,,,,,,,,,,,
1683982130,-1,-100,-100,-100,0,0,96,2,0,0,62,64,155,120,55,286.31,91,-4,-7,-975,evil_twin,,,,,,,,,,,,,,,,
1683982130,-1,-100,-100,-100,0,0,96,2,0,0,62,64,155,120,55,286.31,91,-3,-5,-1011,evil_twin,,,,,,,,,,,,,,,,
1683982130,-1,-100,-100,-100,0,0,96,2,0,0,62,64,154,120,55,286.31,91,0,-8,-1010,evil_twin,,,,,,,,,,,,,,,,
1683982130,-1,-100,-100,-100,0,0,96,2,0,0,62,64,154,120,55,286.33,91,0,-6,-1000,evil_twin,,,,,,,,,,,,,,,,
1683982130,-1,-100,-100,-100,0,-1,96,2,0,0,62,64,153,120,55,286.23,91,-5,-8,-995,evil_twin,,,,,,,,,,,,,,,,
1683982130,-1,-100,-100,-100,2,-1,96,1,0,0,62,64,152,120,55,286.26,91,-2,3,-995,evil_twin,,,,,,,,,,,,,,,,
1683982131,-1,-100,-100,-100,2,-1,96,1,0,0,62,64,152,120,55,286.26,91,-2,3,-995,evil_twin,,,,,,,,,,,,,,,,
1683982131,-1,-100,-100,-100,4,-3,96,1,0,0,62,65,153,120,55,286.36,91,-13,-10,-1062,evil_twin,,,,,,,,,,,,,,,,
1683982131,-1,-100,-100,-100,0,-2,96,0,1,0,62,65,154,120,55,286.24,91,14,-3,-970,evil_twin,,,,,,,,,,,,,,,,
1683982131,-1,-100,-100,-100,-2,-1,96,0,0,0,62,65,154,120,55,286.33,91,13,0,-1016,evil_twin,,,,,,,,,,,,,,,,
1683982131,-1,-100,-100,-100,0,0,96,0,0,0,62,65,154,120,55,286.24,91,-1,2,-1002,evil_twin,,,,,,,,,,,,,,,,
1683982131,-1,-100,-100,-100,0,0,96,0,0,0,62,65,153,120,55,286.29,92,22,2,-990,evil_twin,,,,,,,,,,,,,,,,
1683982131,-1,-100,-100,-100,0,0,96,0,0,0,62,65,153,120,55,286.29,92,21,-4,-1008,evil_twin,,,,,,,,,,,,,,,,
1683982131,-1,-100,-100,-100,0,0,96,0,0,0,62,65,153,120,55,286.27,92,13,3,-995,evil_twin,,,,,,,,,,,,,,,,
1683982131,-1,-100,-100,-100,0,0,96,0,0,0,62,65,153,120,55,286.3,92,13,-5,-994,evil_twin,,,,,,,,,,,,,,,,
1683982131,-1,-100,-100,-100,0,0,96,0,0,0,62,65,154,120,55,286.34,92,15,0,-996,evil_twin,,,,,,,,,,,,,,,,
1683982131,-1,-100,-100,-100,0,0,96,0,0,0,62,65,154,120,55,286.28,92,13,8,-1010,evil_twin,,,,,,,,,,,,,,,,
1683982132,-1,-100,-100,-100,0,0,96,0,0,0,62,65,154,120,55,286.28,92,13,8,-1010,evil_twin,,,,,,,,,,,,,,,,
1683982132,-1,-100,-100,-100,0,0,96,0,0,0,62,65,155,120,55,286.26,92,12,8,-1015,evil_twin,,,,,,,,,,,,,,,,
1683982132,-1,-100,-100,-100,0,0,96,0,0,0,62,65,154,120,55,286.26,92,-4,3,-998,evil_twin,,,,,,,,,,,,,,,,
1683982132,-1,-100,-100,-100,0,0,96,0,0,0,62,65,155,120,55,286.29,92,-5,6,-987,evil_twin,,,,,,,,,,,,,,,,
1683982132,-1,-100,-100,-100,0,0,96,0,0,0,62,65,155,120,55,286.29,92,-4,5,-1004,evil_twin,,,,,,,,,,,,,,,,
1683982132,-1,-100,-100,-100,0,0,96,0,0,0,62,65,155,120,55,286.29,93,-11,14,-1004,evil_twin,,,,,,,,,,,,,,,,
1683982132,-1,-100,-100,-100,0,0,96,0,0,0,62,65,155,120,55,286.32,93,15,1,-999,evil_twin,,,,,,,,,,,,,,,,
1683982132,-1,-100,-100,-100,0,0,96,0,0,0,62,65,155,120,55,286.29,93,-5,3,-989,evil_twin,,,,,,,,,,,,,,,,
1683982132,-1,-100,-100,-100,0,0,96,0,0,0,62,65,154,120,55,286.24,93,12,1,-1003,evil_twin,,,,,,,,,,,,,,,,
1683982132,-1,-100,-100,-100,0,0,96,0,0,0,62,65,154,120,55,286.25,93,-20,6,-1006,evil_twin,,,,,,,,,,,,,,,,
1683982132,-1,-100,-100,-100,0,0,96,0,0,0,62,65,154,120,55,286.32,93,8,11,-1017,evil_twin,,,,,,,,,,,,,,,,
1683982133,-1,-100,-100,-100,0,0,96,0,0,0,62,65,154,120,55,286.32,93,8,11,-1017,evil_twin,,,,,,,,,,,,,,,,
1683982133,-1,-100,-100,-100,0,0,96,0,0,0,62,64,154,120,55,286.27,93,-2,-7,-989,evil_twin,,,,,,,,,,,,,,,,
1683982133,-1,-100,-100,-100,0,0,96,0,0,0,62,64,154,120,55,286.31,93,0,5,-1002,evil_twin,,,,,,,,,,,,,,,,
1683982133,-1,-100,-100,-100,0,0,96,0,0,0,62,64,154,120,55,286.24,93,0,10,-1022,evil_twin,,,,,,,,,,,,,,,,
1683982133,-1,-100,-100,-100,0,0,96,0,0,0,62,64,154,120,55,286.25,94,0,11,-1020,evil_twin,,,,,,,,,,,,,,,,
1683982133,-1,-100,-100,-100,0,0,96,0,0,0,62,64,154,120,55,286.32,94,4,5,-995,evil_twin,,,,,,,,,,,,,,,,
1683982133,-1,-100,-100,-100,0,0,96,0,0,0,62,64,155,120,55,286.29,94,2,4,-1001,evil_twin,,,,,,,,,,,,,,,,
1683982133,-1,-100,-100,-100,0,0,96,0,0,0,62,64,155,120,55,286.29,94,0,8,-1003,evil_twin,,,,,,,,,,,,,,,,
1683982133,-1,-100,-100,-100,0,0,96,0,0,0,62,64,155,120,55,286.26,94,-1,5,-985,evil_twin,,,,,,,,,,,,,,,,
1683982133,-1,-100,-100,-100,0,0,96,0,0,0,62,64,155,120,55,286.23,94,1,7,-990,evil_twin,,,,,,,,,,,,,,,,
1683982133,-1,-100,-100,-100,0,0,96,0,0,0,62,64,155,120,55,286.3,94,0,0,-1020,evil_twin,,,,,,,,,,,,,,,,
1683982134,-1,-100,-100,-100,0,0,96,0,0,0,62,64,155,120,55,286.3,94,0,0,-1020,evil_twin,,,,,,,,,,,,,,,,
1683982134,-1,-100,-100,-100,0,0,96,0,0,0,61,65,155,120,55,286.23,94,2,1,-1002,evil_twin,,,,,,,,,,,,,,,,
1683982134,-1,-100,-100,-100,0,0,96,0,0,0,61,65,155,120,55,286.2,94,-2,7,-1004,evil_twin,,,,,,,,,,,,,,,,
1683982134,-1,-100,-100,-100,0,0,96,0,0,0,61,65,155,120,55,286.29,94,-7,3,-982,evil_twin,,,,,,,,,,,,,,,,
1683982134,-1,-100,-100,-100,0,0,96,0,0,0,61,65,156,120,55,286.29,95,-8,2,-987,evil_twin,,,,,,,,,,,,,,,,
1683982134,-1,-100,-100,-100,0,0,96,0,0,0,61,65,156,120,55,286.33,95,2,-1,-997,evil_twin,,,,,,,,,,,,,,,,
1683982134,-1,-100,-100,-100,0,0,96,0,0,0,61,65,155,120,55,286.34,95,-17,8,-996,evil_twin,,,,,,,,,,,,,,,,
1683982134,-1,-100,-100,-100,0,0,96,0,0,0,61,65,156,120,55,286.34,95,-2,2,-1012,evil_twin,,,,,,,,,,,,,,,,
1683982134,-1,-100,-100,-100,0,0,96,0,0,0,61,65,156,120,55,286.29,95,11,-2,-990,evil_twin,,,,,,,,,,,,,,,,
1683982134,-1,-100,-100,-100,0,0,96,0,0,0,61,65,157,120,55,286.37,95,-5,12,-992,evil_twin,,,,,,,,,,,,,,,,
1683982134,-1,-100,-100,-100,0,0,96,0,0,0,61,65,157,120,55,286.36,95,0,11,-1006,evil_twin,,,,,,,,,,,,,,,,
1683982135,-1,-100,-100,-100,0,0,96,0,0,0,61,65,157,120,55,286.36,95,0,11,-1006,evil_twin,,,,,,,,,,,,,,,,
1683982135,-1,-100,-100,-100,0,0,96,0,0,0,62,65,157,130,55,286.32,95,-4,6,-1000,evil_twin,,,,,,,,,,,,,,,,
1683982135,-1,-100,-100,-100,0,0,96,0,0,0,62,65,157,130,55,286.31,95,12,3,-991,evil_twin,,,,,,,,,,,,,,,,
1683982135,-1,-100,-100,-100,0,0,96,0,0,0,62,65,158,130,55,286.3,95,0,0,-999,evil_twin,,,,,,,,,,,,,,,,
1683982135,-1,-100,-100,-100,0,0,96,0,0,0,62,65,158,130,55,286.28,96,0,7,-989,evil_twin,,,,,,,,,,,,,,,,
1683982135,-1,-100,-100,-100,0,0,96,0,0,0,62,65,158,130,55,286.29,96,0,1,-997,evil_twin,,,,,,,,,,,,,,,,
1683982135,-1,-100,-100,-100,0,0,96,0,0,0,62,65,158,130,55,286.31,96,0,6,-1010,evil_twin,,,,,,,,,,,,,,,,
1683982135,-1,-100,-100,-100,0,0,96,0,0,0,62,65,158,130,55,286.34,96,3,7,-999,evil_twin,,,,,,,,,,,,,,,,
1683982135,-1,-100,-100,-100,0,0,96,0,0,0,62,65,157,130,55,286.3,96,19,1,-1013,evil_twin,,,,,,,,,,,,,,,,
1683982135,-1,-100,-100,-100,0,0,96,0,0,0,62,65,158,130,55,286.37,96,5,-2,-998,evil_twin,,,,,,,,,,,,,,,,
1683982135,-1,-100,-100,-100,0,0,96,0,0,0,62,65,158,130,55,286.3,96,7,5,-1010,evil_twin,,,,,,,,,,,,,,,,
1683982136,-1,-100,-100,-100,0,0,96,0,0,0,62,65,158,130,55,286.3,96,7,5,-1010,evil_twin,,,,,,,,,,,,,,,,
1683982136,-1,-100,-100,-100,0,0,96,0,0,0,62,65,158,130,55,286.34,96,3,0,-998,evil_twin,,,,,,,,,,,,,,,,
1683982136,-1,-100,-100,-100,0,0,96,0,0,0,62,65,159,130,55,286.31,96,-1,0,-994,evil_twin,,,,,,,,,,,,,,,,
1683982136,-1,-100,-100,-100,0,0,96,0,0,0,62,65,158,130,55,286.29,96,1,-2,-996,evil_twin,,,,,,,,,,,,,,,,
1683982136,-1,-100,-100,-100,0,0,96,0,0,0,62,65,159,130,55,286.27,97,7,-2,-992,evil_twin,,,,,,,,,,,,,,,,
1683982136,-1,-100,-100,-100,0,0,96,0,0,0,62,65,159,130,55,286.31,97,4,0,-999,evil_twin,,,,,,,,,,,,,,,,
1683982136,-1,-100,-100,-100,0,0,96,0,0,0,62,65,160,130,55,286.27,97,14,6,-993,evil_twin,,,,,,,,,,,,,,,,
1683982136,-1,-100,-100,-100,0,0,96,0,0,0,62,65,159,130,55,286.34,97,2,0,-990,evil_twin,,,,,,,,,,,,,,,,
1683982136,-1,-100,-100,-100,0,0,96,0,0,0,62,65,159,130,55,286.35,97,-12,-7,-986,evil_twin,,,,,,,,,,,,,,,,
1683982136,-1,-100,-100,-100,0,0,96,0,0,0,62,65,158,130,55,286.32,97,17,-3,-994,evil_twin,,,,,,,,,,,,,,,,
1683982136,-1,-100,-100,-100,0,0,96,0,0,0,62,65,158,130,55,286.26,97,10,3,-1005,evil_twin,,,,,,,,,,,,,,,,
1683982137,-1,-100,-100,-100,0,0,96,0,0,0,62,65,158,130,55,286.26,97,10,3,-1005,evil_twin,,,,,,,,,,,,,,,,
1683982137,-1,-100,-100,-100,0,0,96,0,0,0,62,64,160,130,55,286.3,97,2,3,-995,evil_twin,,,,,,,,,,,,,,,,
1683982137,-1,-100,-100,-100,0,0,96,0,0,0,62,64,160,130,55,286.27,97,1,8,-1004,evil_twin,,,,,,,,,,,,,,,,
1683982137,-1,-100,-100,-100,0,0,96,0,0,0,62,64,160,130,55,286.32,97,3,1,-1000,evil_twin,,,,,,,,,,,,,,,,
1683982137,-1,-100,-100,-100,0,0,96,0,0,0,62,64,159,130,55,286.33,98,-5,-6,-1001,evil_twin,,,,,,,,,,,,,,,,
1683982137,-1,-100,-100,-100,0,0,96,0,0,0,62,64,160,130,55,286.25,98,19,8,-1011,evil_twin,,,,,,,,,,,,,,,,
1683982137,-1,-100,-100,-100,0,0,96,0,0,0,62,64,159,130,55,286.25,98,9,0,-1004,evil_twin,,,,,,,,,,,,,,,,
1683982137,-1,-100,-100,-100,0,0,96,0,0,0,62,64,159,130,54,286.29,98,7,0,-1029,evil_twin,,,,,,,,,,,,,,,,
1683982137,-1,-100,-100,-100,0,0,96,0,0,0,62,64,160,130,54,286.35,98,1,2,-998,evil_twin,,,,,,,,,,,,,,,,
1683982137,-1,-100,-100,-100,0,0,96,0,0,0,62,64,160,130,54,286.3,98,0,8,-999,evil_twin,,,,,,,,,,,,,,,,
1683982137,-1,-100,-100,-100,0,0,96,0,0,0,62,64,161,130,54,286.33,98,0,-1,-979,evil_twin,,,,,,,,,,,,,,,,
1683982138,-1,-100,-100,-100,0,0,96,0,0,0,62,64,161,130,54,286.33,98,0,-1,-979,evil_twin,,,,,,,,,,,,,,,,
1683982138,-1,-100,-100,-100,0,0,96,0,0,0,62,64,161,130,54,286.32,98,0,0,-992,evil_twin,,,,,,,,,,,,,,,,
1683982138,-1,-100,-100,-100,0,0,96,0,0,0,62,64,160,130,54,286.28,98,0,7,-996,evil_twin,,,,,,,,,,,,,,,,
1683982138,-1,-100,-100,-100,0,0,96,0,0,0,62,64,161,130,54,286.32,98,14,-6,-995,evil_twin,,,,,,,,,,,,,,,,
1683982138,-1,-100,-100,-100,0,0,96,0,0,0,62,64,161,130,54,286.34,99,-4,5,-1002,evil_twin,,,,,,,,,,,,,,,,
1683982138,-1,-100,-100,-100,0,0,96,0,0,0,62,64,161,130,54,286.3,99,7,7,-997,evil_twin,,,,,,,,,,,,,,,,
1683982138,-1,-100,-100,-100,0,0,96,0,0,0,62,64,160,130,54,286.28,99,0,-6,-994,evil_twin,,,,,,,,,,,,,,,,
1683982138,-1,-100,-100,-100,0,0,96,0,0,0,62,64,160,130,54,286.35,99,2,0,-996,evil_twin,,,,,,,,,,,,,,,,
1683982138,-1,-100,-100,-100,0,0,96,0,0,0,62,64,160,130,54,286.27,99,1,-1,-992,evil_twin,,,,,,,,,,,,,,,,
1683982138,-1,-100,-100,-100,0,0,96,0,0,0,62,64,159,130,54,286.29,99,-18,-12,-989,evil_twin,,,,,,,,,,,,,,,,
1683982138,-1,-100,-100,-100,0,0,96,0,0,0,62,64,160,130,54,286.27,99,0,-2,-1009,evil_twin,,,,,,,,,,,,,,,,
1683982139,-1,-100,-100,-100,0,0,96,0,0,0,62,64,160,130,54,286.27,99,0,-2,-1009,evil_twin,,,,,,,,,,,,,,,,
1683982139,-1,-100,-100,-100,0,0,96,0,0,0,62,64,159,130,54,286.32,99,5,-7,-988,evil_twin,,,,,,,,,,,,,,,,
1683982139,-1,-100,-100,-100,0,0,96,0,0,0,62,64,160,130,54,286.26,99,-12,0,-987,evil_twin,,,,,,,,,,,,,,,,
1683982139,-1,-100,-100,-100,0,0,96,0,0,0,62,64,159,130,54,286.24,99,-6,19,-978,evil_twin,,,,,,,,,,,,,,,,
1683982139,-1,-100,-100,-100,0,-6,96,0,0,0,62,64,161,130,54,286.36,100,2,-15,-1034,evil_twin,,,,,,,,,,,,,,,,
1683982139,-1,-100,-100,-100,0,-7,96,-1,0,0,62,64,160,130,54,286.27,100,-6,3,-1010,evil_twin,,,,,,,,,,,,,,,,
1683982139,-1,-100,-100,-100,0,-4,96,-2,0,0,62,64,159,130,54,286.25,100,6,9,-1009,evil_twin,,,,,,,,,,,,,,,,
1683982139,-1,-100,-100,-100,0,-2,96,-3,0,0,62,64,160,130,54,286.28,100,5,15,-994,evil_twin,,,,,,,,,,,,,,,,
1683982139,-1,-100,-100,-100,0,0,96,-3,0,0,62,64,160,130,54,286.31,100,5,7,-996,evil_twin,,,,,,,,,,,,,,,,
1683982139,-1,-100,-100,-100,0,0,96,-3,0,0,62,64,160,130,54,286.3,100,7,24,-1001,evil_twin,,,,,,,,,,,,,,,,
1683982139,-1,-100,-100,-100,0,0,96,-3,0,0,62,64,160,130,54,286.37,100,4,4,-988,evil_twin,,,,,,,,,,,,,,,,
1683982140,-1,-100,-100,-100,0,0,96,-3,0,0,62,64,160,130,54,286.37,100,4,4,-988,evil_twin,,,,,,,,,,,,,,,,
1683982140,-1,-100,-100,-100,0,0,96,-2,0,0,62,65,160,130,54,286.3,100,24,5,-980,evil_twin,,,,,,,,,,,,,,,,
1683982140,-1,-100,-100,-100,0,0,96,-2,0,0,62,65,160,130,54,286.28,100,8,11,-1011,evil_twin,,,,,,,,,,,,,,,,
1683982140,-1,-100,-100,-100,0,0,96,-2,0,0,62,65,161,130,54,286.29,100,13,8,-1002,evil_twin,,,,,,,,,,,,,,,,
1683982140,-1,-100,-100,-100,0,0,96,-2,0,0,62,65,161,130,54,286.31,101,12,3,-1013,evil_twin,,,,,,,,,,,,,,,,
1683982140,-1,-100,-100,-100,0,0,96,-2,0,0,62,65,160,130,54,286.3,101,1,11,-999,evil_twin,,,,,,,,,,,,,,,,
1683982140,-1,-100,-100,-100,0,0,96,-2,0,0,62,65,161,130,54,286.3,101,1,15,-996,evil_twin,,,,,,,,,,,,,,,,
1683982140,-1,-100,-100,-100,0,0,96,-2,0,0,62,65,162,130,54,286.25,101,0,14,-998,evil_twin,,,,,,,,,,,,,,,,
1683982140,-1,-100,-100,-100,0,0,96,-2,0,0,62,65,162,130,54,286.28,101,5,12,-982,evil_twin,,,,,,,,,,,,,,,,
1683982140,-1,-100,-100,-100,0,2,96,-1,0,0,62,65,162,130,54,286.32,101,5,5,-1008,evil_twin,,,,,,,,,,,,,,,,
1683982141,-1,-100,-100,-100,0,2,96,-1,0,0,62,65,162,130,54,286.32,101,5,5,-1008,evil_twin,,,,,,,,,,,,,,,,
1683982141,-1,-100,-100,-100,0,4,96,-1,0,0,62,65,162,130,54,286.29,101,11,17,-974,evil_twin,,,,,,,,,,,,,,,,
1683982141,-1,-100,-100,-100,0,2,96,0,0,0,62,65,162,130,54,286.32,101,18,2,-1019,evil_twin,,,,,,,,,,,,,,,,
1683982141,-1,-100,-100,-100,0,0,96,0,0,0,62,65,161,130,54,286.32,101,1,0,-996,evil_twin,,,,,,,,,,,,,,,,
1683982141,-1,-100,-100,-100,0,0,96,0,0,0,62,65,161,130,54,286.3,101,-8,0,-1002,evil_twin,,,,,,,,,,,,,,,,
1683982141,-1,-100,-100,-100,0,0,96,0,0,0,62,65,160,130,54,286.31,102,29,11,-1001,evil_twin,,,,,,,,,,,,,,,,
1683982141,-1,-100,-100,-100,0,0,96,0,0,0,62,65,160,130,54,286.3,102,-12,1,-1003,evil_twin,,,,,,,,,,,,,,,,
1683982141,-1,-100,-100,-100,0,0,96,0,0,0,62,65,160,130,54,286.34,102,4,0,-1000,evil_twin,,,,,,,,,,,,,,,,
1683982141,-1,-100,-100,-100,0,0,96,0,0,0,62,65,160,130,54,286.26,102,7,1,-997,evil_twin,,,,,,,,,,,,,,,,
1683982141,-1,-100,-100,-100,0,0,96,0,0,0,62,65,160,130,54,286.31,102,11,-7,-1007,evil_twin,,,,,,,,,,,,,,,,
1683982141,-1,-100,-100,-100,0,0,96,0,0,0,62,65,160,130,54,286.26,102,6,-1,-1006,evil_twin,,,,,,,,,,,,,,,,
1683982141,-1,-100,-100,-100,0,0,96,0,0,0,62,65,160,130,54,286.32,102,16,-1,-1008,evil_twin,,,,,,,,,,,,,,,,
1683982142,-1,-100,-100,-100,0,0,96,0,0,0,62,65,160,130,54,286.32,102,16,-1,-1008,evil_twin,,,,,,,,,,,,,,,,
1683982142,-1,-100,-100,-100,0,0,96,0,0,0,62,64,160,130,54,286.2,102,4,0,-1003,evil_twin,,,,,,,,,,,,,,,,
1683982142,-1,-100,-100,-100,0,0,96,0,0,0,62,64,160,130,54,286.27,102,-3,0,-1006,evil_twin,,,,,,,,,,,,,,,,
1683982142,-1,-100,-100,-100,0,0,96,0,0,0,62,64,160,130,54,286.28,102,5,1,-974,evil_twin,,,,,,,,,,,,,,,,
1683982142,-1,-100,-100,-100,0,0,96,0,0,0,62,64,159,130,54,286.34,103,10,-11,-999,evil_twin,,,,,,,,,,,,,,,,
1683982142,-1,-100,-100,-100,0,0,96,0,0,0,62,64,159,130,54,286.2,103,3,8,-1004,evil_twin,,,,,,,,,,,,,,,,
1683982142,-1,-100,-100,-100,0,0,96,0,0,0,62,64,158,130,53,286.26,103,1,1,-1000,evil_twin,,,,,,,,,,,,,,,,
1683982142,-1,-100,-100,-100,0,0,96,0,0,0,62,64,158,130,53,286.3,103,5,0,-998,evil_twin,,,,,,,,,,,,,,,,
1683982142,-1,-100,-100,-100,0,0,96,0,0,0,62,64,159,130,53,286.27,103,3,1,-993,evil_twin,,,,,,,,,,,,,,,,
1683982142,-1,-100,-100,-100,0,0,96,0,0,0,62,64,158,130,53,286.26,103,7,1,-1011,evil_twin,,,,,,,,,,,,,,,,
1683982142,-1,-100,-100,-100,0,0,96,0,0,0,62,64,158,130,53,286.24,103,2,0,-1002,evil_twin,,,,,,,,,,,,,,,,
1683982143,-1,-100,-100,-100,0,0,96,0,0,0,62,64,158,130,53,286.24,103,2,0,-1002,evil_twin,,,,,,,,,,,,,,,,
1683982143,-1,-100,-100,-100,0,0,96,0,0,0,62,65,158,130,53,286.29,103,-5,-3,-992,evil_twin,,,,,,,,,,,,,,,,
1683982143,-1,-100,-100,-100,0,0,96,0,0,0,62,65,158,130,53,286.3,103,27,0,-1011,evil_twin,,,,,,,,,,,,,,,,
1683982143,-1,-100,-100,-100,0,0,96,0,0,0,62,65,157,130,53,286.29,103,-15,0,-992,evil_twin,,,,,,,,,,,,,,,,
1683982143,-1,-100,-100,-100,0,0,96,0,0,0,62,65,157,120,53,286.22,104,2,0,-1001,evil_twin,,,,,,,,,,,,,,,,
1683982143,-1,-100,-100,-100,0,0,96,0,0,0,62,65,157,120,53,286.26,104,17,6,-1013,evil_twin,,,,,,,,,,,,,,,,
1683982143,-1,-100,-100,-100,0,0,96,0,0,0,62,65,158,120,53,286.31,104,4,1,-1004,evil_twin,,,,,,,,,,,,,,,,
1683982143,-1,-100,-100,-100,0,0,96,0,0,0,62,65,157,120,53,286.27,104,4,0,-995,evil_twin,,,,,,,,,,,,,,,,
1683982143,-1,-100,-100,-100,0,0,96,0,0,0,62,65,158,120,53,286.29,104,12,2,-1004,evil_twin,,,,,,,,,,,,,,,,
1683982143,-1,-100,-100,-100,0,0,96,0,0,0,62,65,157,120,53,286.23,104,21,5,-1009,evil_twin,,,,,,,,,,,,,,,,
1683982143,-1,-100,-100,-100,0,0,96,0,0,0,62,65,158,120,53,286.21,104,15,3,-1012,evil_twin,,,,,,,,,,,,,,,,
1683982144,-1,-100,-100,-100,0,0,96,0,0,0,62,65,158,120,53,286.21,104,15,3,-1012,evil_twin,,,,,,,,,,,,,,,,
1683982144,-1,-100,-100,-100,0,0,96,0,0,0,62,65,158,120,53,286.22,104,19,16,-997,evil_twin,,,,,,,,,,,,,,,,
1683982144,-1,-100,-100,-100,0,0,96,0,0,0,62,65,158,120,53,286.29,104,33,2,-1001,evil_twin,,,,,,,,,,,,,,,,
1683982144,-1,-100,-100,-100,0,0,96,0,0,0,62,65,157,130,53,286.23,104,5,7,-1000,evil_twin,,,,,,,,,,,,,,,,
1683982144,-1,-100,-100,-100,0,0,96,0,0,0,62,65,157,130,53,286.26,105,7,0,-988,evil_twin,,,,,,,,,,,,,,,,
1683982144,-1,-100,-100,-100,0,0,96,0,0,0,62,65,157,130,53,286.23,105,3,13,-1004,evil_twin,,,,,,,,,,,,,,,,
1683982144,-1,-100,-100,-100,0,0,96,0,0,0,62,65,157,130,53,286.19,105,2,7,-1003,evil_twin,,,,,,,,,,,,,,,,
1683982144,-1,-100,-100,-100,0,0,96,0,0,0,62,65,157,120,53,286.22,105,13,3,-1004,evil_twin,,,,,,,,,,,,,,,,
1683982144,-1,-100,-100,-100,0,0,96,0,0,0,62,65,157,120,53,286.27,105,-3,11,-995,evil_twin,,,,,,,,,,,,,,,,
1683982144,-1,-100,-100,-100,0,0,96,0,0,0,62,65,157,120,53,286.24,105,11,3,-1014,evil_twin,,,,,,,,,,,,,,,,
1683982145,-1,-100,-100,-100,0,0,96,0,0,0,62,65,157,120,53,286.24,105,11,3,-1014,evil_twin,,,,,,,,,,,,,,,,
1683982145,-1,-100,-100,-100,0,0,96,0,0,0,62,65,157,120,53,286.26,105,9,3,-1006,evil_twin,,,,,,,,,,,,,,,,
1683982145,-1,-100,-100,-100,0,0,96,0,0,0,62,65,157,120,53,286.22,105,5,3,-1000,evil_twin,,,,,,,,,,,,,,,,
1683982145,-1,-100,-100,-100,0,0,96,0,0,0,62,65,157,120,53,286.19,105,1,5,-1009,evil_twin,,,,,,,,,,,,,,,,
1683982145,-1,-100,-100,-100,0,0,96,0,0,0,62,65,156,120,53,286.22,105,24,3,-1003,evil_twin,,,,,,,,,,,,,,,,
1683982145,-1,-100,-100,-100,0,0,96,0,0,0,62,65,157,120,53,286.2,106,8,11,-1000,evil_twin,,,,,,,,,,,,,,,,
1683982145,-1,-100,-100,-100,0,0,96,0,0,0,62,65,156,120,53,286.27,106,17,-1,-997,evil_twin,,,,,,,,,,,,,,,,
1683982145,-1,-100,-100,-100,0,0,96,0,0,0,62,65,157,120,53,286.26,106,6,17,-1009,evil_twin,,,,,,,,,,,,,,,,
1683982145,-1,-100,-100,-100,0,0,96,0,0,0,62,65,156,120,53,286.22,106,25,1,-994,evil_twin,,,,,,,,,,,,,,,,
1683982145,-1,-100,-100,-100,0,0,96,0,0,0,62,65,157,120,53,286.3,106,9,7,-1017,evil_twin,,,,,,,,,,,,,,,,
1683982145,-1,-100,-100,-100,0,0,96,0,0,0,62,65,157,120,53,286.2,106,24,1,-989,evil_twin,,,,,,,,,,,,,,,,
1683982145,-1,-100,-100,-100,0,0,96,0,0,0,62,65,156,120,53,286.26,106,0,6,-990,evil_twin,,,,,,,,,,,,,,,,
1683982146,-1,-100,-100,-100,0,0,96,0,0,0,62,65,156,120,53,286.26,106,0,6,-990,evil_twin,,,,,,,,,,,,,,,,
1683982146,-1,-100,-100,-100,0,0,96,0,0,0,62,65,156,120,53,286.27,106,10,4,-1013,evil_twin,,,,,,,,,,,,,,,,
1683982146,-1,-100,-100,-100,0,0,96,0,0,0,62,65,157,120,53,286.24,106,19,12,-1009,evil_twin,,,,,,,,,,,,,,,,
1683982146,-1,-100,-100,-100,0,0,96,0,0,0,62,65,157,120,53,286.26,106,16,9,-1010,evil_twin,,,,,,,,,,,,,,,,
1683982146,-1,-100,-100,-100,0,0,96,0,0,0,62,65,157,120,53,286.26,107,3,12,-1002,evil_twin,,,,,,,,,,,,,,,,
1683982146,-1,-100,-100,-100,0,0,96,0,0,0,62,65,157,120,53,286.26,107,-5,5,-1004,evil_twin,,,,,,,,,,,,,,,,
1683982146,-1,-100,-100,-100,0,0,96,0,0,0,62,65,158,120,53,286.27,107,11,12,-1017,evil_twin,,,,,,,,,,,,,,,,
1683982146,-1,-100,-100,-100,0,0,96,0,0,0,62,65,158,120,53,286.25,107,7,4,-994,evil_twin,,,,,,,,,,,,,,,,
1683982146,-1,-100,-100,-100,0,0,96,0,0,0,62,65,157,120,53,286.27,107,10,11,-1009,evil_twin,,,,,,,,,,,,,,,,
1683982146,-1,-100,-100,-100,0,0,96,0,0,0,62,65,157,130,53,286.21,107,5,8,-986,evil_twin,,,,,,,,,,,,,,,,
1683982146,-1,-100,-100,-100,0,0,96,0,0,0,62,65,158,130,53,286.28,107,21,4,-1002,evil_twin,,,,,,,,,,,,,,,,
1683982147,-1,-100,-100,-100,0,0,96,0,0,0,62,65,158,130,53,286.28,107,21,4,-1002,evil_twin,,,,,,,,,,,,,,,,
1683982147,-1,-100,-100,-100,0,0,96,0,0,0,62,65,158,130,53,286.28,107,11,-3,-1003,evil_twin,,,,,,,,,,,,,,,,
1683982147,-1,-100,-100,-100,0,0,96,0,0,0,62,65,159,130,53,286.23,107,5,0,-995,evil_twin,,,,,,,,,,,,,,,,
1683982147,-1,-100,-100,-100,0,0,96,0,0,0,62,65,159,130,53,286.24,107,2,7,-1002,evil_twin,,,,,,,,,,,,,,,,
1683982147,-1,-100,-100,-100,0,0,96,0,0,0,62,65,159,130,53,286.25,108,19,7,-1009,evil_twin,,,,,,,,,,,,,,,,
1683982147,-1,-100,-100,-100,0,0,96,0,0,0,62,65,160,130,53,286.25,108,15,-6,-986,evil_twin,,,,,,,,,,,,,,,,
1683982147,-1,-100,-100,-100,0,0,96,0,0,0,62,65,160,130,53,286.31,108,18,-1,-1009,evil_twin,,,,,,,,,,,,,,,,
1683982147,-1,-100,-100,-100,0,0,96,0,0,0,62,65,161,130,53,286.34,108,0,4,-972,evil_twin,,,,,,,,,,,,,,,,
1683982147,-1,-100,-100,-100,0,0,96,0,0,0,62,65,161,130,53,286.32,108,7,2,-1010,evil_twin,,,,,,,,,,,,,,,,
1683982147,-1,-100,-100,-100,0,0,96,0,0,0,62,65,161,130,53,286.27,108,14,1,-994,evil_twin,,,,,,,,,,,,,,,,
1683982148,-1,-100,-100,-100,0,0,96,0,0,0,62,65,161,130,53,286.27,108,14,1,-994,evil_twin,,,,,,,,,,,,,,,,
1683982148,-1,-100,-100,-100,0,0,96,0,0,0,62,65,161,130,53,286.33,108,-5,7,-1000,evil_twin,,,,,,,,,,,,,,,,
1683982148,-1,-100,-100,-100,0,0,96,0,0,0,62,65,160,130,53,286.32,108,0,2,-996,evil_twin,,,,,,,,,,,,,,,,
1683982148,-1,-100,-100,-100,0,0,96,0,0,0,62,65,161,130,53,286.23,108,23,0,-996,evil_twin,,,,,,,,,,,,,,,,
1683982148,-1,-100,-100,-100,0,0,96,0,0,0,62,65,160,130,53,286.36,108,7,-1,-973,evil_twin,,,,,,,,,,,,,,,,
1683982148,-1,-100,-100,-100,0,0,96,0,0,0,62,65,160,130,53,286.33,109,0,-4,-1006,evil_twin,,,,,,,,,,,,,,,,
1683982148,-1,-100,-100,-100,0,0,96,0,0,0,62,65,160,130,53,286.28,109,6,4,-1005,evil_twin,,,,,,,,,,,,,,,,
1683982148,-1,-100,-100,-100,0,0,96,0,0,0,62,65,160,130,52,286.39,109,5,2,-985,evil_twin,,,,,,,,,,,,,,,,
1683982148,-1,-100,-100,-100,0,0,96,0,0,0,62,65,160,130,52,286.32,109,-2,8,-1001,evil_twin,,,,,,,,,,,,,,,,
1683982148,-1,-100,-100,-100,0,0,96,0,0,0,62,65,158,130,52,286.24,109,28,0,-1026,evil_twin,,,,,,,,,,,,,,,,
1683982148,-1,-100,-100,-100,0,0,96,0,0,0,62,65,160,130,52,286.24,109,0,5,-1012,evil_twin,,,,,,,,,,,,,,,,
1683982149,-1,-100,-100,-100,0,0,96,0,0,0,62,65,160,130,52,286.24,109,0,5,-1012,evil_twin,,,,,,,,,,,,,,,,
1683982149,-1,-100,-100,-100,0,0,96,0,0,0,62,65,160,130,52,286.3,109,11,-9,-987,evil_twin,,,,,,,,,,,,,,,,
1683982149,-1,-100,-100,-100,0,0,96,0,0,0,62,65,160,130,52,286.29,109,5,2,-996,evil_twin,,,,,,,,,,,,,,,,
1683982149,-1,-100,-100,-100,0,0,96,0,0,0,62,65,160,130,52,286.25,109,0,9,-1010,evil_twin,,,,,,,,,,,,,,,,
1683982149,-1,-100,-100,-100,0,0,96,0,0,0,62,65,160,130,52,286.34,109,4,3,-1022,evil_twin,,,,,,,,,,,,,,,,
1683982149,-1,-100,-100,-100,-3,0,96,0,0,0,62,65,160,130,52,286.21,110,15,-5,-980,evil_twin,,,,,,,,,,,,,,,,
1683982149,-1,-100,-100,-100,-7,0,96,0,-1,0,62,65,160,130,52,286.31,110,-7,11,-1000,evil_twin,,,,,,,,,,,,,,,,
1683982149,-1,-100,-100,-100,-5,0,96,0,-2,0,62,65,160,130,52,286.31,110,-10,12,-1022,evil_twin,,,,,,,,,,,,,,,,
1683982149,-1,-100,-100,-100,-2,0,96,0,-3,0,62,65,161,130,52,286.26,110,-5,2,-1006,evil_twin,,,,,,,,,,,,,,,,
1683982149,-1,-100,-100,-100,-1,0,96,0,-3,0,62,65,160,130,52,286.29,110,-22,11,-999,evil_twin,,,,,,,,,,,,,,,,
1683982149,-1,-100,-100,-100,0,0,96,0,-3,0,62,65,161,130,52,286.24,110,-16,2,-992,evil_twin,,,,,,,,,,,,,,,,
1683982149,-1,-100,-100,-100,0,0,96,0,-2,0,62,65,161,130,52,286.26,110,-31,5,-986,evil_twin,,,,,,,,,,,,,,,,
1683982150,-1,-100,-100,-100,0,0,96,0,-2,0,62,65,161,130,52,286.26,110,-31,5,-986,evil_twin,,,,,,,,,,,,,,,,
1683982150,-1,-100,-100,-100,0,0,96,0,-2,0,62,65,159,130,52,286.28,110,-29,6,-998,evil_twin,,,,,,,,,,,,,,,,
1683982150,-1,-100,-100,-100,0,0,96,0,-2,0,62,65,160,130,52,286.31,110,-2,3,-988,evil_twin,,,,,,,,,,,,,,,,
1683982150,-1,-100,-100,-100,0,0,96,0,-2,0,62,65,159,130,52,286.26,110,-2,8,-998,evil_twin,,,,,,,,,,,,,,,,
1683982150,-1,-100,-100,-100,0,0,95,0,-2,0,62,65,159,130,52,286.26,111,7,15,-1000,evil_twin,,,,,,,,,,,,,,,,
1683982150,-1,-100,-100,-100,0,0,96,0,-2,0,62,65,160,130,52,286.25,111,0,10,-992,evil_twin,,,,,,,,,,,,,,,,
1683982150,-1,-100,-100,-100,0,0,96,0,-2,0,62,65,159,130,52,286.31,111,-8,6,-996,evil_twin,,,,,,,,,,,,,,,,
1683982150,-1,-100,-100,-100,0,0,96,0,-2,0,62,65,158,130,52,286.25,111,-11,2,-996,evil_twin,,,,,,,,,,,,,,,,
1683982150,-1,-100,-100,-100,0,0,96,0,-2,0,62,65,155,130,52,286.29,111,-13,6,-1000,evil_twin,,,,,,,,,,,,,,,,
1683982150,-1,-100,-100,-100,0,0,96,0,-2,0,62,65,150,130,52,286.29,111,-15,5,-1007,evil_twin,,,,,,,,,,,,,,,,
1683982151,-1,-100,-100,-100,0,0,96,0,-2,0,62,65,150,130,52,286.29,111,-15,5,-1007,evil_twin,,,,,,,,,,,,,,,,
1683982151,-1,-100,-100,-100,2,0,96,0,-1,0,62,65,144,130,52,286.31,111,-13,11,-1030,evil_twin,,,,,,,,,,,,,,,,
1683982151,-1,-100,-100,-100,3,0,96,0,0,0,62,65,146,130,52,286.24,111,-13,2,-1014,evil_twin,,,,,,,,,,,,,,,,
1683982151,-1,-100,-100,-100,1,0,96,0,0,0,62,65,149,120,52,286.33,111,12,7,-1000,evil_twin,,,,,,,,,,,,,,,,
1683982151,-1,-100,-100,-100,0,0,96,0,0,0,62,65,150,120,52,286.26,111,7,3,-1002,evil_twin,,,,,,,,,,,,,,,,
1683982151,-1,-100,-100,-100,0,0,96,0,0,0,62,65,150,120,52,286.26,112,11,7,-1017,evil_twin,,,,,,,,,,,,,,,,
1683982151,-1,-100,-100,-100,0,0,96,0,0,0,62,65,150,120,52,286.24,112,12,0,-1014,evil_twin,,,,,,,,,,,,,,,,
1683982151,-1,-100,-100,-100,0,0,96,0,0,0,62,65,150,120,52,286.25,112,-8,4,-1003,evil_twin,,,,,,,,,,,,,,,,
1683982151,-1,-100,-100,-100,0,0,96,0,0,0,62,65,150,120,52,286.27,112,3,-3,-1013,evil_twin,,,,,,,,,,,,,,,,
1683982151,-1,-100,-100,-100,0,0,96,0,0,0,62,65,152,120,52,286.31,112,3,0,-999,evil_twin,,,,,,,,,,,,,,,,
1683982151,-1,-100,-100,-100,0,0,96,0,0,0,62,65,152,120,52,286.19,112,19,20,-1009,evil_twin,,,,,,,,,,,,,,,,
1683982152,-1,-100,-100,-100,0,0,96,0,0,0,62,65,152,120,52,286.19,112,19,20,-1009,evil_twin,,,,,,,,,,,,,,,,
1683982152,-1,-100,-100,-100,0,0,96,0,0,0,62,65,153,120,52,286.33,112,-10,5,-985,evil_twin,,,,,,,,,,,,,,,,
1683982152,-1,-100,-100,-100,0,0,96,0,0,0,62,65,154,120,52,286.28,112,8,3,-1012,evil_twin,,,,,,,,,,,,,,,,
1683982152,-1,-100,-100,-100,0,0,96,0,0,0,62,65,154,120,52,286.29,112,12,6,-991,evil_twin,,,,,,,,,,,,,,,,
1683982152,-1,-100,-100,-100,0,0,96,0,0,0,62,65,155,120,52,286.3,113,14,7,-1002,evil_twin,,,,,,,,,,,,,,,,
1683982152,-1,-100,-100,-100,0,0,96,0,0,0,62,65,155,120,52,286.27,113,20,-5,-1002,evil_twin,,,,,,,,,,,,,,,,
1683982152,-1,-100,-100,-100,0,0,96,0,0,0,62,65,156,120,52,286.29,113,-3,6,-995,evil_twin,,,,,,,,,,,,,,,,
1683982152,-1,-100,-100,-100,0,0,96,0,0,0,62,65,157,120,52,286.33,113,9,8,-1005,evil_twin,,,,,,,,,,,,,,,,
1683982152,-1,-100,-100,-100,0,0,96,0,0,0,62,65,158,120,52,286.36,113,27,7,-995,evil_twin,,,,,,,,,,,,,,,,
1683982152,-1,-100,-100,-100,0,0,96,0,0,0,62,65,158,120,52,286.31,113,12,5,-997,evil_twin,,,,,,,,,,,,,,,,
1683982153,-1,-100,-100,-100,0,0,96,0,0,0,62,65,158,120,52,286.31,113,12,5,-997,evil_twin,,,,,,,,,,,,,,,,
1683982153,-1,-100,-100,-100,0,0,96,0,0,0,62,65,157,120,52,286.35,113,9,2,-1004,evil_twin,,,,,,,,,,,,,,,,
1683982153,-1,-100,-100,-100,0,0,96,0,0,0,62,65,156,120,52,286.28,113,-16,1,-987,evil_twin,,,,,,,,,,,,,,,,
1683982153,-1,-100,-100,-100,0,0,96,0,0,0,62,65,157,120,52,286.32,113,0,0,-991,evil_twin,,,,,,,,,,,,,,,,
1683982153,-1,-100,-100,-100,0,0,96,0,0,0,62,65,157,120,52,286.32,114,12,8,-999,evil_twin,,,,,,,,,,,,,,,,
1683982153,-1,-100,-100,-100,0,0,96,0,0,0,62,65,157,120,52,286.26,114,7,-1,-1003,evil_twin,,,,,,,,,,,,,,,,
1683982153,-1,-100,-100,-100,0,0,96,0,0,0,62,65,157,120,52,286.27,114,-2,5,-1001,evil_twin,,,,,,,,,,,,,,,,
1683982153,-1,-100,-100,-100,0,0,96,0,0,0,62,65,156,120,52,286.38,114,4,4,-999,evil_twin,,,,,,,,,,,,,,,,
1683982153,-1,-100,-100,-100,0,0,96,0,0,0,62,65,157,120,52,286.35,114,7,1,-1010,evil_twin,,,,,,,,,,,,,,,,
1683982153,-1,-100,-100,-100,0,0,96,0,0,0,62,65,156,120,52,286.29,114,9,9,-997,evil_twin,,,,,,,,,,,,,,,,
1683982153,-1,-100,-100,-100,0,0,96,0,0,0,62,65,156,120,52,286.33,114,6,3,-1001,evil_twin,,,,,,,,,,,,,,,,
1683982154,-1,-100,-100,-100,0,0,96,0,0,0,62,65,156,120,52,286.33,114,6,3,-1001,evil_twin,,,,,,,,,,,,,,,,
1683982154,-1,-100,-100,-100,0,0,96,0,0,0,62,65,155,120,52,286.25,114,12,4,-994,evil_twin,,,,,,,,,,,,,,,,
1683982154,-1,-100,-100,-100,0,0,96,0,0,0,63,65,156,120,52,286.32,114,-4,9,-993,evil_twin,,,,,,,,,,,,,,,,
1683982154,-1,-100,-100,-100,0,0,96,0,0,0,63,65,156,120,52,286.25,114,-4,15,-995,evil_twin,,,,,,,,,,,,,,,,
1683982154,-1,-100,-100,-100,0,0,96,0,0,0,63,65,157,120,52,286.34,115,-12,8,-988,evil_twin,,,,,,,,,,,,,,,,
1683982154,-1,-100,-100,-100,0,0,96,0,0,0,63,65,157,120,52,286.32,115,2,4,-1001,evil_twin,,,,,,,,,,,,,,,,
1683982154,-1,-100,-100,-100,0,0,96,0,0,0,63,65,158,120,52,286.32,115,16,8,-1004,evil_twin,,,,,,,,,,,,,,,,
1683982154,-1,-100,-100,-100,0,0,96,0,0,0,63,65,156,120,52,286.28,115,16,6,-1004,evil_twin,,,,,,,,,,,,,,,,
1683982154,-1,-100,-100,-100,0,0,96,0,0,0,63,65,156,120,52,286.32,115,-9,0,-1000,evil_twin,,,,,,,,,,,,,,,,
1683982154,-1,-100,-100,-100,0,0,96,0,0,0,63,65,155,120,52,286.34,115,13,7,-1005,evil_twin,,,,,,,,,,,,,,,,
1683982154,-1,-100,-100,-100,0,0,96,0,0,0,63,65,154,120,52,286.34,115,2,7,-1011,evil_twin,,,,,,,,,,,,,,,,
1683982155,-1,-100,-100,-100,0,0,96,0,0,0,63,65,154,120,52,286.34,115,2,7,-1011,evil_twin,,,,,,,,,,,,,,,,
1683982155,-1,-100,-100,-100,0,0,96,0,0,0,62,65,155,120,52,286.28,115,-4,4,-1006,evil_twin,,,,,,,,,,,,,,,,
1683982155,-1,-100,-100,-100,0,0,96,0,0,0,62,65,154,120,52,286.27,115,6,5,-1003,evil_twin,,,,,,,,,,,,,,,,
1683982155,-1,-100,-100,-100,0,0,96,0,0,0,62,65,155,120,52,286.35,116,-6,3,-1002,evil_twin,,,,,,,,,,,,,,,,
1683982155,-1,-100,-100,-100,0,0,96,0,0,0,62,65,154,120,52,286.34,116,5,7,-991,evil_twin,,,,,,,,,,,,,,,,
1683982155,-1,-100,-100,-100,0,0,96,0,0,0,62,65,156,120,52,286.39,116,-7,6,-998,evil_twin,,,,,,,,,,,,,,,,
1683982155,-1,-100,-100,-100,0,0,96,0,0,0,62,65,154,120,52,286.3,116,0,10,-1006,evil_twin,,,,,,,,,,,,,,,,
1683982155,-1,-100,-100,-100,0,0,96,0,0,0,62,65,155,120,52,286.28,116,12,11,-1015,evil_twin,,,,,,,,,,,,,,,,
1683982155,-1,-100,-100,-100,0,0,96,0,0,0,62,65,154,120,52,286.26,116,18,6,-1016,evil_twin,,,,,,,,,,,,,,,,
1683982155,-1,-100,-100,-100,0,0,96,0,0,0,62,65,154,120,52,286.32,116,-4,4,-999,evil_twin,,,,,,,,,,,,,,,,
1683982156,-1,-100,-100,-100,0,0,96,0,0,0,62,65,154,120,52,286.32,116,-4,4,-999,evil_twin,,,,,,,,,,,,,,,,
1683982156,-1,-100,-100,-100,0,0,96,0,0,0,62,65,155,120,52,286.35,116,-3,8,-1005,evil_twin,,,,,,,,,,,,,,,,
1683982156,-1,-100,-100,-100,0,0,96,0,0,0,62,65,155,120,52,286.33,116,14,13,-1007,evil_twin,,,,,,,,,,,,,,,,
1683982156,-1,-100,-100,-100,0,0,96,0,0,0,62,65,156,120,52,286.39,116,0,3,-998,evil_twin,,,,,,,,,,,,,,,,
1683982156,-1,-100,-100,-100,0,0,96,0,0,0,62,65,155,120,52,286.25,117,8,12,-1002,evil_twin,,,,,,,,,,,,,,,,
1683982156,-1,-100,-100,-100,0,0,96,0,0,0,62,65,156,120,52,286.3,117,-7,0,-993,evil_twin,,,,,,,,,,,,,,,,
1683982156,-1,-100,-100,-100,0,0,96,0,0,0,62,65,156,120,52,286.32,117,-6,8,-1000,evil_twin,,,,,,,,,,,,,,,,
1683982156,-1,-100,-100,-100,0,0,96,0,0,0,62,65,156,120,52,286.34,117,-3,-4,-994,evil_twin,,,,,,,,,,,,,,,,
1683982156,-1,-100,-100,-100,0,0,96,0,0,0,62,65,155,120,52,286.32,117,4,2,-999,evil_twin,,,,,,,,,,,,,,,,
1683982156,-1,-100,-100,-100,0,0,96,0,0,0,62,65,155,120,52,286.35,117,17,12,-1008,evil_twin,,,,,,,,,,,,,,,,
1683982156,-1,-100,-100,-100,0,0,96,0,0,0,62,65,155,120,52,286.32,117,-13,2,-991,evil_twin,,,,,,,,,,,,,,,,
1683982157,-1,-100,-100,-100,0,0,96,0,0,0,62,65,155,120,52,286.32,117,-13,2,-991,evil_twin,,,,,,,,,,,,,,,,
1683982157,-1,-100,-100,-100,0,0,96,0,0,0,62,65,155,120,52,286.37,117,-2,14,-1005,evil_twin,,,,,,,,,,,,,,,,
1683982157,-1,-100,-100,-100,0,0,96,0,0,0,62,65,155,120,52,286.3,117,0,11,-1003,evil_twin,,,,,,,,,,,,,,,,
1683982157,-1,-100,-100,-100,0,0,96,0,0,0,62,65,155,120,52,286.34,117,7,10,-1004,evil_twin,,,,,,,,,,,,,,,,
1683982157,-1,-100,-100,-100,0,0,96,0,0,0,62,65,155,120,52,286.39,118,0,-1,-996,evil_twin,,,,,,,,,,,,,,,,
1683982157,-1,-100,-100,-100,0,0,96,0,0,0,62,65,156,120,52,286.46,118,10,14,-1007,evil_twin,,,,,,,,,,,,,,,,
1683982157,-1,-100,-100,-100,0,0,96,0,0,0,62,65,155,120,52,286.39,118,-5,1,-1005,evil_twin,,,,,,,,,,,,,,,,
1683982157,-1,-100,-100,-100,0,0,96,0,0,0,62,65,157,120,51,286.31,118,8,11,-997,evil_twin,,,,,,,,,,,,,,,,
1683982157,-1,-100,-100,-100,0,0,96,0,0,0,62,65,155,120,51,286.32,118,-14,-2,-990,evil_twin,,,,,,,,,,,,,,,,
1683982157,-1,-100,-100,-100,0,0,96,0,0,0,62,65,156,120,51,286.32,118,-16,3,-1005,evil_twin,,,,,,,,,,,,,,,,
1683982157,-1,-100,-100,-100,0,0,96,0,0,0,62,65,156,120,51,286.32,118,-14,2,-999,evil_twin,,,,,,,,,,,,,,,,
1683982158,-1,-100,-100,-100,0,0,96,0,0,0,62,65,156,120,51,286.32,118,-14,2,-999,evil_twin,,,,,,,,,,,,,,,,
1683982158,-1,-100,-100,-100,0,0,96,0,0,0,62,65,156,120,51,286.3,118,11,-6,-992,evil_twin,,,,,,,,,,,,,,,,
1683982158,-1,-100,-100,-100,0,0,96,0,0,0,63,65,157,120,51,286.33,118,-8,0,-1003,evil_twin,,,,,,,,,,,,,,,,
1683982158,-1,-100,-100,-100,0,0,96,0,0,0,63,65,157,120,51,286.28,118,0,-3,-990,evil_twin,,,,,,,,,,,,,,,,
1683982158,-1,-100,-100,-100,0,0,96,0,0,0,63,65,156,120,51,286.34,119,-3,7,-1002,evil_twin,,,,,,,,,,,,,,,,
1683982158,-1,-100,-100,-100,0,0,96,0,0,0,63,65,158,120,51,286.41,119,10,5,-1000,evil_twin,,,,,,,,,,,,,,,,
1683982158,-1,-100,-100,-100,0,0,96,0,0,0,63,65,157,120,51,286.38,119,6,-1,-1007,evil_twin,,,,,,,,,,,,,,,,
1683982158,-1,-100,-100,-100,0,0,96,0,0,0,63,65,156,120,51,286.36,119,2,0,-1009,evil_twin,,,,,,,,,,,,,,,,
1683982158,-1,-100,-100,-100,0,0,96,0,0,0,63,65,156,120,51,286.34,119,-6,0,-1004,evil_twin,,,,,,,,,,,,,,,,
1683982158,-1,-100,-100,-100,0,0,96,0,0,0,63,65,156,120,51,286.38,119,-4,0,-996,evil_twin,,,,,,,,,,,,,,,,
1683982158,-1,-100,-100,-100,0,0,96,0,0,0,63,65,157,120,51,286.3,119,25,-7,-1012,evil_twin,,,,,,,,,,,,,,,,
1683982159,-1,-100,-100,-100,0,0,96,0,0,0,63,65,157,120,51,286.3,119,25,-7,-1012,evil_twin,,,,,,,,,,,,,,,,
1683982159,-1,-100,-100,-100,0,0,96,0,0,0,63,65,157,120,51,286.3,119,10,-9,-997,evil_twin,,,,,,,,,,,,,,,,
1683982159,-1,-100,-100,-100,0,0,96,0,0,0,62,65,156,120,51,286.34,119,-7,3,-1005,evil_twin,,,,,,,,,,,,,,,,
1683982159,-1,-100,-100,-100,0,0,96,0,0,0,62,65,158,130,51,286.32,119,-9,-2,-1000,evil_twin,,,,,,,,,,,,,,,,
1683982159,-1,-100,-100,-100,0,0,96,0,0,0,62,65,154,130,51,286.34,120,8,4,-981,evil_twin,,,,,,,,,,,,,,,,
1683982159,-1,-100,-100,-100,6,0,96,0,0,0,62,65,149,130,51,286.32,120,-2,0,-1026,evil_twin,,,,,,,,,,,,,,,,
1683982159,-1,-100,-100,-100,6,0,96,0,1,0,62,65,149,120,51,286.43,120,18,3,-1011,evil_twin,,,,,,,,,,,,,,,,
1683982159,-1,-100,-100,-100,4,0,96,0,2,0,62,65,153,120,51,286.32,120,3,-4,-1006,evil_twin,,,,,,,,,,,,,,,,
1683982159,-1,-100,-100,-100,2,0,96,0,3,0,62,65,160,120,51,286.37,120,5,-2,-1002,evil_twin,,,,,,,,,,,,,,,,
1683982159,-1,-100,-100,-100,0,0,96,0,3,0,62,65,162,120,51,286.43,120,8,-8,-993,evil_twin,,,,,,,,,,,,,,,,
1683982159,-1,-100,-100,-100,0,0,96,0,3,0,62,65,162,120,51,286.35,120,17,-1,-991,evil_twin,,,,,,,,,,,,,,,,
1683982160,-1,-100,-100,-100,0,0,96,0,3,0,62,65,162,120,51,286.35,120,17,-1,-991,evil_twin,,,,,,,,,,,,,,,,
1683982160,-1,-100,-100,-100,0,0,96,0,2,0,62,65,162,120,51,286.34,120,21,-2,-1006,evil_twin,,,,,,,,,,,,,,,,
1683982160,-1,-100,-100,-100,0,0,96,0,2,0,62,65,162,120,51,286.33,120,19,4,-1004,evil_twin,,,,,,,,,,,,,,,,
1683982160,-1,-100,-100,-100,0,0,96,0,2,0,62,65,162,120,51,286.34,120,14,9,-1008,evil_twin,,,,,,,,,,,,,,,,
1683982160,-1,-100,-100,-100,0,0,96,0,2,0,62,65,162,120,51,286.45,121,17,1,-1002,evil_twin,,,,,,,,,,,,,,,,
1683982160,-1,-100,-100,-100,0,0,96,0,2,0,62,65,161,120,51,286.4,121,9,-10,-994,evil_twin,,,,,,,,,,,,,,,,
1683982160,-1,-100,-100,-100,0,0,96,0,2,0,62,65,162,120,51,286.4,121,20,1,-1004,evil_twin,,,,,,,,,,,,,,,,
1683982160,-1,-100,-100,-100,0,0,96,0,2,0,62,65,162,120,51,286.32,121,18,2,-1006,evil_twin,,,,,,,,,,,,,,,,
1683982160,-1,-100,-100,-100,0,0,96,0,2,0,62,65,162,130,51,286.33,121,18,0,-999,evil_twin,,,,,,,,,,,,,,,,
1683982160,-1,-100,-100,-100,0,0,96,0,2,0,62,65,163,130,51,286.36,121,13,1,-994,evil_twin,,,,,,,,,,,,,,,,
1683982160,-1,-100,-100,-100,-1,0,96,0,1,0,62,65,163,130,51,286.38,121,12,3,-1015,evil_twin,,,,,,,,,,,,,,,,
1683982161,-1,-100,-100,-100,-1,0,96,0,1,0,62,65,163,130,51,286.38,121,12,3,-1015,evil_twin,,,,,,,,,,,,,,,,
1683982161,-1,-100,-100,-100,-3,0,96,0,1,0,62,65,163,130,51,286.38,121,1,-3,-991,evil_twin,,,,,,,,,,,,,,,,
1683982161,-1,-100,-100,-100,-1,0,96,0,0,0,62,65,163,130,51,286.34,121,5,7,-1006,evil_twin,,,,,,,,,,,,,,,,
1683982161,-1,-100,-100,-100,0,0,96,0,0,0,62,65,162,130,51,286.39,121,3,0,-995,evil_twin,,,,,,,,,,,,,,,,
1683982161,-1,-100,-100,-100,0,0,96,0,0,0,62,65,162,130,51,286.39,122,11,8,-996,evil_twin,,,,,,,,,,,,,,,,
1683982161,-1,-100,-100,-100,0,0,96,0,0,0,62,65,162,130,51,286.34,122,12,12,-1008,evil_twin,,,,,,,,,,,,,,,,
1683982161,-1,-100,-100,-100,0,0,96,0,0,0,62,65,162,130,51,286.31,122,13,1,-1002,evil_twin,,,,,,,,,,,,,,,,
1683982161,-1,-100,-100,-100,0,0,96,0,0,0,62,65,162,130,51,286.37,122,-15,7,-992,evil_twin,,,,,,,,,,,,,,,,
1683982161,-1,-100,-100,-100,0,0,96,0,0,0,62,65,163,130,51,286.35,122,10,6,-993,evil_twin,,,,,,,,,,,,,,,,
1683982161,-1,-100,-100,-100,0,0,96,0,0,0,62,65,162,130,51,286.38,122,3,2,-996,evil_twin,,,,,,,,,,,,,,,,
1683982161,-1,-100,-100,-100,0,0,96,0,0,0,62,65,161,130,51,286.36,122,-4,4,-982,evil_twin,,,,,,,,,,,,,,,,
1683982162,-1,-100,-100,-100,0,0,96,0,0,0,62,65,161,130,51,286.36,122,-4,4,-982,evil_twin,,,,,,,,,,,,,,,,
1683982162,-1,-100,-100,-100,0,0,96,0,0,0,62,65,161,130,51,286.33,122,5,1,-1016,evil_twin,,,,,,,,,,,,,,,,
1683982162,-1,-100,-100,-100,0,0,96,0,0,0,63,65,161,130,51,286.3,122,-6,0,-1001,evil_twin,,,,,,,,,,,,,,,,
1683982162,-1,-100,-100,-100,0,0,96,0,0,0,63,65,161,130,51,286.37,122,17,5,-1016,evil_twin,,,,,,,,,,,,,,,,
1683982162,-1,-100,-100,-100,0,0,96,0,0,0,63,65,162,130,51,286.36,123,2,-4,-989,evil_twin,,,,,,,,,,,,,,,,
1683982162,-1,-100,-100,-100,0,0,96,0,0,0,63,65,161,130,51,286.34,123,1,11,-1004,evil_twin,,,,,,,,,,,,,,,,
1683982162,-1,-100,-100,-100,0,0,96,0,0,0,63,65,162,130,50,286.39,123,4,-7,-995,evil_twin,,,,,,,,,,,,,,,,
1683982162,-1,-100,-100,-100,0,0,96,0,0,0,63,65,162,130,50,286.37,123,16,2,-998,evil_twin,,,,,,,,,,,,,,,,
1683982162,-1,-100,-100,-100,0,0,96,0,0,0,63,65,161,130,50,286.4,123,4,0,-994,evil_twin,,,,,,,,,,,,,,,,
1683982162,-1,-100,-100,-100,0,0,96,0,0,0,63,65,161,130,50,286.39,123,15,-1,-1000,evil_twin,,,,,,,,,,,,,,,,
1683982162,-1,-100,-100,-100,0,0,96,0,0,0,63,65,163,130,50,286.39,123,-13,1,-991,evil_twin,,,,,,,,,,,,,,,,
1683982163,-1,-100,-100,-100,0,0,96,0,0,0,63,65,163,130,50,286.39,123,-13,1,-991,evil_twin,,,,,,,,,,,,,,,,
1683982163,-1,-100,-100,-100,0,0,96,0,0,0,63,65,161,130,50,286.38,123,24,-1,-1020,evil_twin,,,,,,,,,,,,,,,,
1683982163,-1,-100,-100,-100,0,0,96,0,0,0,62,65,162,130,50,286.36,123,17,0,-973,evil_twin,,,,,,,,,,,,,,,,
1683982163,-1,-100,-100,-100,0,0,96,0,0,0,62,65,161,130,50,286.41,123,-12,-4,-993,evil_twin,,,,,,,,,,,,,,,,
1683982163,-1,-100,-100,-100,0,0,96,0,0,0,62,65,161,130,50,286.35,124,7,-4,-992,evil_twin,,,,,,,,,,,,,,,,
1683982163,-1,-100,-100,-100,0,0,96,0,0,0,62,65,162,130,50,286.39,124,3,8,-1014,evil_twin,,,,,,,,,,,,,,,,
1683982163,-1,-100,-100,-100,0,0,96,0,0,0,62,65,162,130,50,286.35,124,14,5,-1008,evil_twin,,,,,,,,,,,,,,,,
1683982163,-1,-100,-100,-100,0,0,96,0,0,0,62,65,162,130,50,286.35,124,10,-3,-994,evil_twin,,,,,,,,,,,,,,,,
1683982163,-1,-100,-100,-100,0,0,96,0,0,0,62,65,162,130,50,286.41,124,11,0,-997,evil_twin,,,,,,,,,,,,,,,,
1683982163,-1,-100,-100,-100,0,0,96,0,0,0,62,65,163,130,50,286.38,124,1,1,-996,evil_twin,,,,,,,,,,,,,,,,
1683982163,-1,-100,-100,-100,0,0,96,0,0,0,62,65,162,130,50,286.39,124,10,-3,-985,evil_twin,,,,,,,,,,,,,,,,
1683982164,-1,-100,-100,-100,0,0,96,0,0,0,62,65,162,130,50,286.39,124,10,-3,-985,evil_twin,,,,,,,,,,,,,,,,
1683982164,-1,-100,-100,-100,0,0,96,0,0,0,62,65,161,130,50,286.44,124,-2,6,-987,evil_twin,,,,,,,,,,,,,,,,
1683982164,-1,-100,-100,-100,0,0,96,0,0,0,62,65,162,130,50,286.4,124,0,-2,-1006,evil_twin,,,,,,,,,,,,,,,,
1683982164,-1,-100,-100,-100,0,0,96,0,0,0,62,65,161,130,50,286.4,124,0,8,-998,evil_twin,,,,,,,,,,,,,,,,
1683982164,-1,-100,-100,-100,0,0,96,0,0,0,62,65,162,130,50,286.37,125,4,4,-1019,evil_twin,,,,,,,,,,,,,,,,
1683982164,-1,-100,-100,-100,0,0,96,0,0,0,62,65,160,130,50,286.37,125,14,1,-997,evil_twin,,,,,,,,,,,,,,,,
1683982164,-1,-100,-100,-100,0,0,96,0,0,0,62,65,161,130,50,286.32,125,-2,-2,-1001,evil_twin,,,,,,,,,,,,,,,,
1683982164,-1,-100,-100,-100,0,0,96,0,0,0,62,65,160,130,50,286.35,125,0,0,-999,evil_twin,,,,,,,,,,,,,,,,
1683982164,-1,-100,-100,-100,0,0,96,0,0,0,62,65,159,130,50,286.37,125,-7,-1,-991,evil_twin,,,,,,,,,,,,,,,,
1683982164,-1,-100,-100,-100,0,0,96,0,0,0,62,65,160,130,50,286.35,125,11,0,-1002,evil_twin,,,,,,,,,,,,,,,,
1683982164,-1,-100,-100,-100,0,0,96,0,0,0,62,65,161,130,50,286.38,125,-4,11,-1006,evil_twin,,,,,,,,,,,,,,,,
1683982165,-1,-100,-100,-100,0,0,96,0,0,0,62,65,161,130,50,286.38,125,-4,11,-1006,evil_twin,,,,,,,,,,,,,,,,
1683982165,-1,-100,-100,-100,0,0,96,0,0,0,62,65,161,130,50,286.37,125,16,-1,-1009,evil_twin,,,,,,,,,,,,,,,,
1683982165,-1,-100,-100,-100,0,0,96,0,0,0,62,66,160,130,50,286.37,125,12,-2,-1011,evil_twin,,,,,,,,,,,,,,,,
1683982165,-1,-100,-100,-100,0,0,96,0,0,0,62,66,160,130,50,286.4,125,7,7,-1008,evil_twin,,,,,,,,,,,,,,,,
1683982165,-1,-100,-100,-100,0,0,96,0,0,0,62,66,161,130,50,286.38,126,8,5,-993,evil_twin,,,,,,,,,,,,,,,,
1683982165,-1,-100,-100,-100,0,0,96,0,0,0,62,66,161,130,50,286.35,126,20,-3,-999,evil_twin,,,,,,,,,,,,,,,,
1683982165,-1,-100,-100,-100,0,0,96,0,0,0,62,66,161,130,50,286.36,126,-4,0,-993,evil_twin,,,,,,,,,,,,,,,,
1683982165,-1,-100,-100,-100,0,0,96,0,0,0,62,66,160,130,50,286.36,126,6,1,-1001,evil_twin,,,,,,,,,,,,,,,,
1683982165,-1,-100,-100,-100,0,0,96,0,0,0,62,66,161,130,50,286.4,126,21,1,-993,evil_twin,,,,,,,,,,,,,,,,
1683982165,-1,-100,-100,-100,0,0,96,0,0,0,62,66,160,130,50,286.41,126,4,0,-993,evil_twin,,,,,,,,,,,,,,,,
1683982166,-1,-100,-100,-100,0,0,96,0,0,0,62,66,160,130,50,286.41,126,4,0,-993,evil_twin,,,,,,,,,,,,,,,,
1683982166,-1,-100,-100,-100,0,0,96,0,0,0,62,66,160,130,50,286.32,126,1,0,-999,evil_twin,,,,,,,,,,,,,,,,
1683982166,-1,-100,-100,-100,0,0,96,0,0,0,62,66,160,130,50,286.4,126,3,2,-1005,evil_twin,,,,,,,,,,,,,,,,
1683982166,-1,-100,-100,-100,0,0,96,0,0,0,63,65,160,130,50,286.35,126,3,1,-1010,evil_twin,,,,,,,,,,,,,,,,
1683982166,-1,-100,-100,-100,0,0,96,0,0,0,63,65,160,130,50,286.36,126,-3,11,-1001,evil_twin,,,,,,,,,,,,,,,,
1683982166,-1,-100,-100,-100,0,0,96,0,0,0,63,65,159,130,50,286.41,127,0,3,-996,evil_twin,,,,,,,,,,,,,,,,
1683982166,-1,-100,-100,-100,0,0,96,0,0,0,63,65,159,130,50,286.34,127,12,2,-1000,evil_twin,,,,,,,,,,,,,,,,
1683982166,-1,-100,-100,-100,0,0,96,0,0,0,63,65,161,130,50,286.36,127,6,7,-1002,evil_twin,,,,,,,,,,,,,,,,
1683982166,-1,-100,-100,-100,0,0,96,0,0,0,63,65,160,130,50,286.38,127,18,0,-1004,evil_twin,,,,,,,,,,,,,,,,
1683982166,-1,-100,-100,-100,0,0,96,0,0,0,63,65,160,130,50,286.38,127,5,0,-1001,evil_twin,,,,,,,,,,,,,,,,
1683982166,-1,-100,-100,-100,0,0,96,0,0,0,63,65,160,130,50,286.35,127,10,15,-1000,evil_twin,,,,,,,,,,,,,,,,
1683982166,-1,-100,-100,-100,0,0,96,0,0,0,63,65,159,130,50,286.35,127,5,-2,-984,evil_twin,,,,,,,,,,,,,,,,
1683982167,-1,-100,-100,-100,0,0,96,0,0,0,63,65,159,130,50,286.35,127,5,-2,-984,evil_twin,,,,,,,,,,,,,,,,
1683982167,-1,-100,-100,-100,0,0,96,0,0,0,63,65,161,130,50,286.29,127,20,5,-1005,evil_twin,,,,,,,,,,,,,,,,
1683982167,-1,-100,-100,-100,0,0,96,0,0,0,62,65,158,130,50,286.35,127,16,-5,-985,evil_twin,,,,,,,,,,,,,,,,
1683982167,-1,-100,-100,-100,0,0,96,0,0,0,62,65,160,130,50,286.35,127,6,10,-997,evil_twin,,,,,,,,,,,,,,,,
1683982167,-1,-100,-100,-100,0,0,96,0,0,0,62,65,159,130,50,286.37,128,9,0,-992,evil_twin,,,,,,,,,,,,,,,,
1683982167,-1,-100,-100,-100,0,0,96,0,0,0,62,65,159,130,50,286.37,128,6,-1,-999,evil_twin,,,,,,,,,,,,,,,,
1683982167,-1,-100,-100,-100,0,0,96,0,0,0,62,65,158,130,50,286.39,128,0,10,-1006,evil_twin,,,,,,,,,,,,,,,,
1683982167,-1,-100,-100,-100,0,0,96,0,0,0,62,65,160,130,50,286.35,128,0,12,-1012,evil_twin,,,,,,,,,,,,,,,,
1683982167,-1,-100,-100,-100,0,0,96,0,0,0,62,65,159,130,50,286.33,128,7,2,-991,evil_twin,,,,,,,,,,,,,,,,
1683982167,-1,-100,-100,-100,0,0,96,0,0,0,62,65,161,130,50,286.35,128,5,2,-993,evil_twin,,,,,,,,,,,,,,,,
1683982168,-1,-100,-100,-100,0,0,96,0,0,0,62,65,161,130,50,286.35,128,5,2,-993,evil_twin,,,,,,,,,,,,,,,,
1683982168,-1,-100,-100,-100,0,0,96,0,0,0,62,65,160,130,50,286.34,128,7,0,-977,evil_twin,,,,,,,,,,,,,,,,
1683982168,-1,-100,-100,-100,0,0,96,0,0,0,62,65,159,130,50,286.4,128,16,3,-1004,evil_twin,,,,,,,,,,,,,,,,
1683982168,-1,-100,-100,-100,0,0,96,0,0,0,63,65,159,130,50,286.41,128,7,0,-1004,evil_twin,,,,,,,,,,,,,,,,
1683982168,-1,-100,-100,-100,0,0,96,0,0,0,63,65,160,130,50,286.37,128,11,-3,-990,evil_twin,,,,,,,,,,,,,,,,
1683982168,-1,-100,-100,-100,0,0,96,0,0,0,63,65,159,130,50,286.36,129,2,0,-1007,evil_twin,,,,,,,,,,,,,,,,
1683982168,-1,-100,-100,-100,0,0,96,0,0,0,63,65,159,130,50,286.38,129,18,8,-1002,evil_twin,,,,,,,,,,,,,,,,
1683982168,-1,-100,-100,-100,0,0,96,0,0,0,63,65,160,130,49,286.32,129,3,0,-984,evil_twin,,,,,,,,,,,,,,,,
1683982168,-1,-100,-100,-100,0,0,96,0,0,0,63,65,160,130,49,286.31,129,2,3,-998,evil_twin,,,,,,,,,,,,,,,,
1683982168,-1,-100,-100,-100,0,0,96,0,0,0,63,65,159,130,49,286.35,129,-1,12,-1027,evil_twin,,,,,,,,,,,,,,,,
1683982168,-1,-100,-100,-100,0,0,96,0,0,0,63,65,160,130,49,286.38,129,14,-6,-996,evil_twin,,,,,,,,,,,,,,,,
1683982169,-1,-100,-100,-100,0,0,96,0,0,0,63,65,160,130,49,286.38,129,14,-6,-996,evil_twin,,,,,,,,,,,,,,,,
1683982169,-1,-100,-100,-100,0,0,96,0,0,0,63,65,158,130,49,286.36,129,-1,9,-1021,evil_twin,,,,,,,,,,,,,,,,
1683982169,-1,-100,-100,-100,0,0,96,0,0,0,63,65,160,130,49,286.41,129,0,4,-1003,evil_twin,,,,,,,,,,,,,,,,
