mid,x,y,z,mpitch,mroll,myaw,pitch,roll,yaw,vgx,vgy,vgz,templ,temph,tof,h,bat,baro,flight_time,agx,agy,agz,est_x,est_y,cntl_x,cntl_y,residual1,residual2,residual3,residual4,class,,,,,,
12,134,-2,80,0,176,-179,0,0,61,0,0,0,62,64,72,50,82,243.33,6,-3,18,-1027,115.5172414,-1.724137931,-18.34482759,-7.917241379,134,-2,134,-2,FDI,,,,,,
12,-3,-12,102,0,176,-179,0,0,61,0,-1,0,64,66,102,80,82,243.72,12,0,12,-953,9.840284153,-10.87591743,12.55506526,-4.78922588,-176.2758621,-9.413793103,-121.0842912,-10.23754789,FDI,,,,,,
12,-6,-9,104,-4,176,-178,-1,-1,61,0,0,0,64,66,105,80,82,243.77,14,0,5,-1017,-6.297393397,-9.307204232,12.99455859,-6.259777025,-31.11679357,7.225581944,0.751658432,3.583962361,FDI,,,,,,
12,-6,-9,104,-4,176,-178,0,0,61,0,0,0,64,66,107,80,82,243.94,14,20,18,-1018,-7.529600523,-9.062175168,14.22161451,-6.870733377,-1.094990866,5.612189899,16.4135381,1.114305783,FDI,,,,,,
12,25,-10,108,0,175,179,0,0,61,0,0,0,64,67,97,80,81,243.73,16,-22,17,-1050,21.35069007,-9.928999608,7.799410806,-7.243905825,34.49539451,4.28728386,43.49965261,-0.436379239,FDI,,,,,,
12,19,-6,103,0,175,-177,2,0,61,0,0,0,65,67,99,80,80,243.75,20,17,5,-979,19.3960619,-6.337150919,10.65020052,-8.895094692,-12.30017913,9.551638688,-5.500589314,4.605114245,FDI,,,,,,
12,19,-9,102,0,175,-178,0,1,61,0,-1,0,65,68,97,80,79,243.79,22,-1,27,-956,19.07234873,-8.682810291,11.56122694,-8.768603106,-11.33218109,1.435076793,-1.778912497,-3.471265185,FDI,,,,,,
12,20,-7,100,0,175,-176,0,0,61,0,-1,0,65,68,101,80,78,243.83,25,16,-2,-954,19.91848048,-7.132575669,12.23595393,-9.95946746,-10.06622549,6.562796946,0.070639666,2.061090996,FDI,,,,,,
12,21,-7,101,0,175,-179,1,-1,61,0,0,0,66,67,100,80,78,243.79,27,2,7,-1048,20.91106838,-6.953960378,12.90278149,-10.61799074,-10.33070208,4.444667869,0.132149014,-0.145152629,FDI,,,,,,
12,18,-7,102,-1,175,179,1,-1,61,0,0,0,65,68,100,80,77,243.82,28,7,-12,-1001,18.23889194,-6.947935595,14.57328824,-11.3021281,-14.8634751,4.083391472,-3.975427438,-0.244255481,FDI,,,,,,
12,18,-7,102,-1,175,179,0,0,61,0,0,0,67,67,101,80,77,243.97,29,74,-5,-927,17.9213294,-6.957547201,15.48143017,-11.99069755,-11.11397667,4.031917886,-0.05099923,-0.139489381,FDI,,,,,,
12,18,-8,102,0,175,-178,0,0,61,0,0,0,67,67,103,80,77,243.91,29,16,12,-997,17.90325407,-7.884426275,16.43297326,-12.42292557,-10.47391016,3.028929534,0.20864365,-1.055090577,FDI,,,,,,
12,26,-11,101,0,175,-179,0,0,61,0,0,0,66,69,97,80,77,243.87,31,23,10,-974,25.27027338,-10.74777363,15.33220646,-12.33099948,-2.37964379,1.362621949,8.084762762,-2.74856157,FDI,,,,,,
12,25,-9,104,0,175,-179,1,0,61,0,0,0,66,69,98,80,76,243.89,33,-1,44,-1064,25.16369674,-9.212698399,16.47229068,-13.4815547,-14.01971966,7.580030849,-3.050338712,3.059594887,FDI,,,,,,
12,26,-11,101,0,175,-179,0,1,61,0,0,0,66,69,101,80,76,243.79,35,-4,15,-923,25.98731138,-10.84388787,16.98143885,-13.57168694,-13.4683874,3.615789326,-1.000402296,-1.465603631,FDI,,,,,,
12,29,-8,99,4,175,-179,0,-1,61,0,0,0,68,70,99,80,75,243.9,37,7,24,-1028,28.78604368,-8.258050281,16.9593552,-14.9519643,-11.82044721,8.925349762,1.425297572,3.688953239,FDI,,,,,,
12,23,-8,101,0,174,-179,0,0,61,0,0,0,68,70,100,80,75,243.91,38,22,22,-934,23.53432798,-7.952101849,19.2061909,-15.56059647,-22.01352915,5.316976653,-7.938648375,-0.092128374,FDI,,,,,,
12,23,-8,101,0,174,-179,0,-1,61,0,0,0,68,70,101,80,75,243.9,39,12,19,-1028,22.90173879,-7.935703559,19.91470024,-16.21132751,-14.70581232,4.7008663,-0.133764291,-0.330708003,FDI,,,,,,
12,27,-12,103,0,174,178,2,0,61,0,0,0,67,70,102,80,74,243.93,41,8,25,-1034,26.53787758,-11.62535633,19.67789976,-15.83933372,-9.452672276,0.610543514,4.444762689,-4.202699418,FDI,,,,,,
12,29,-12,103,4,174,-179,0,-1,61,0,0,0,68,69,97,80,74,243.86,42,5,29,-984,28.79734108,-12.03680533,19.93092059,-16.45984995,-12.58956966,5.927276666,1.2316432,0.921654631,FDI,,,,,,
12,23,-10,101,0,175,-179,0,-1,61,0,0,0,69,70,96,80,74,243.87,43,15,16,-953,23.4977332,-10.20342229,22.16386374,-17.53266549,-22.12247658,8.818749706,-7.53232449,3.059521758,FDI,,,,,,
12,25,-15,95,0,174,178,0,0,61,0,0,0,68,70,96,80,74,243.89,44,-6,34,-989,24.71284169,-14.57166381,22.35372098,-16.81178604,-12.70539305,1.279854538,2.181404873,-4.755574224,FDI,,,,,,
12,35,-10,99,2,174,179,1,-1,61,-1,0,0,68,70,101,80,73,243.98,46,5,38,-1039,34.07660536,-10.4559787,20.55123732,-18.64544003,-4.103107857,12.49572178,10.13771625,6.240095791,FDI,,,,,,
12,31,-18,101,-1,173,177,0,1,61,0,0,0,68,71,105,80,73,243.99,48,-12,8,-975,31.42821338,-17.31138627,22.2386771,-17.1064623,-21.67296837,-1.116895087,-6.704635862,-7.915042951,FDI,,,,,,
12,29,-11,104,-1,174,-179,0,0,61,0,0,0,68,71,104,80,73,243.95,48,5,8,-989,29.19099193,-11.64321269,23.2898331,-19.41697969,-20.61560742,15.56280808,-3.920816928,8.627019971,FDI,,,,,,
12,37,-15,105,0,174,-178,1,-1,61,0,0,0,68,70,96,80,72,243.91,51,14,14,-1005,36.26842998,-14.63000897,21.82055962,-18.84797167,-9.373823967,3.876571625,7.511401947,-3.872326074,FDI,,,,,,
12,33,-18,94,0,174,-179,0,0,61,0,0,0,69,71,97,80,72,243.93,52,0,14,-972,33.36914961,-17.73977824,23.39817713,-18.58767582,-23.46705433,4.87193552,-6.186343164,-2.541165983,FDI,,,,,,
12,33,-18,94,0,174,-179,0,0,61,0,0,0,69,71,96,80,72,243.88,53,9,2,-1008,32.96959895,-18.05766452,23.8640128,-19.02196278,-19.83429271,9.552419315,-1.340209046,1.466591546,FDI,,,,,,
12,23,-18,99,0,174,-179,0,0,61,0,0,0,69,71,96,80,72,243.93,53,1,21,-1017,23.71673648,-18.04165914,26.94574879,-19.40060866,-29.17602927,10.31881459,-10.61878853,1.349954769,FDI,,,,,,
12,23,-18,99,0,174,-179,0,0,61,0,0,0,69,71,97,80,72,243.94,53,-20,6,-1015,22.70152144,-18.00521259,27.55586379,-19.76876365,-15.75243199,10.41606103,2.051034054,0.944318971,FDI,,,,,,
12,23,-18,99,0,174,-179,-1,0,61,0,0,0,68,71,99,80,72,243.94,54,-3,18,-985,22.69976515,-17.9799247,28.32454915,-20.13386556,-13.51145241,10.41411715,2.261410233,0.656975892,FDI,,,,,,
12,27,-18,99,0,174,-179,-1,-1,61,0,0,0,68,71,99,80,72,243.97,54,-5,23,-1041,26.45543461,-17.96429696,28.09188093,-20.49757919,-9.206946526,10.40335859,5.401894175,0.478587675,FDI,,,,,,
12,27,-18,99,0,174,-179,-1,-1,61,0,0,0,68,71,100,80,72,243.92,54,15,4,-974,26.91377997,-17.95483935,28.85766467,-20.86051703,-14.52204445,10.39541433,-0.254892023,0.370508713,FDI,,,,,,
12,35,-21,100,0,173,178,0,0,61,0,0,0,70,71,103,80,72,244.03,56,29,21,-1033,34.30375575,-20.70741653,27.50397532,-20.45067735,-7.432758908,7.390412313,7.275175934,-2.694664677,FDI,,,,,,
12,36,-18,106,-1,173,-179,0,0,61,0,0,0,69,71,98,80,71,244,57,13,24,-963,36.01570677,-18.24684082,27.86501515,-21.55604492,-17.2185934,14.3803817,-1.641551601,4.025206817,FDI,,,,,,
12,22,-35,98,0,174,-179,0,-1,61,1,0,0,70,71,104,80,71,244.02,59,-35,18,-954,23.23219183,-33.57324938,31.94952568,-17.49421651,-34.3405928,-5.948216253,-16.91134338,-16.70812764,FDI,,,,,,
12,27,-25,105,0,173,179,0,-2,61,0,0,0,70,71,103,80,71,244.07,60,67,15,-1077,26.35322658,-26.06084245,31.23949445,-20.25681339,-11.16644266,26.10155221,6.396091951,14.26531446,FDI,,,,,,
12,27,-25,105,0,173,179,0,-1,61,0,0,0,69,71,104,80,71,244,60,-28,35,-1056,26.79964888,-25.05931387,31.97995115,-20.27979578,-14.74524612,16.47848186,1.022252616,2.073876392,FDI,,,,,,
12,27,-25,105,0,173,179,0,-1,61,0,0,0,69,71,100,80,71,244.09,60,26,34,-983,26.87337705,-24.93165918,32.67763891,-20.41368325,-15.41564806,14.75836461,0.128001826,0.478016157,FDI,,,,,,
12,30,-19,105,0,173,178,0,-1,61,0,0,0,69,71,99,80,71,244.12,61,68,5,-1048,29.65026898,-19.40047551,32.59759427,-22.10808216,-12.53712359,20.47221368,2.906300971,6.287598893,FDI,,,,,,
12,30,-19,105,0,173,178,0,-1,61,0,0,0,70,71,99,80,71,244.02,61,24,25,-1073,29.95932206,-18.79725767,33.26039593,-22.31840971,-16.55432888,12.44132672,-0.944780528,-1.245187632,FDI,,,,,,
12,32,-18,101,0,173,-179,0,0,61,0,0,0,70,71,100,80,71,244.05,61,29,11,-1027,31.80190783,-17.87947589,33.36114491,-22.88130999,-15.22714716,12.10234682,0.955648851,-0.340294829,FDI,,,,,,
12,32,-18,101,0,173,-179,0,0,61,0,0,0,70,71,100,80,71,244.09,62,20,33,-1006,31.98127155,-17.82738912,33.94899512,-23.21362092,-17.98190988,10.59051872,-1.31535765,-1.060280218,FDI,,,,,,
12,32,-18,101,0,173,-179,0,-1,61,0,0,0,70,72,99,80,71,244.02,62,-11,25,-1025,31.96501191,-17.86259413,34.50307786,-23.5663375,-18.42977309,10.36396497,-1.168765551,-0.679731927,FDI,,,,,,
12,32,-18,101,0,173,-179,0,-1,61,0,0,0,70,72,97,80,71,243.98,62,-3,17,-1005,31.93913482,-17.8923694,35.0505601,-23.92388285,-18.48373526,10.34786527,-0.879482041,-0.342961884,FDI,,,,,,
12,32,-18,101,0,173,-179,0,0,61,0,0,0,70,72,97,80,71,244.03,63,-4,14,-1010,31.92154337,-17.91136607,35.59601781,-24.28328147,-18.48031053,10.3580403,-0.679416416,-0.126364534,FDI,,,,,,
12,31,-18,99,0,173,-179,0,0,61,0,0,0,70,71,100,80,70,244.11,64,40,15,-949,30.99128244,-17.92293427,36.397965,-24.64365122,-19.47254543,10.36730364,-1.55571402,0.005795063,FDI,,,,,,
12,31,-18,99,0,173,-179,0,0,61,0,0,0,70,71,99,80,70,244.08,64,6,28,-1041,30.88435003,-17.92991655,36.95165455,-25.00458657,-18.13599161,10.37336041,-0.227777087,0.085602816,FDI,,,,,,
12,34,-17,101,-1,173,179,0,0,61,0,0,0,70,71,97,80,70,244,64,17,16,-998,33.63888864,-17.01469773,36.74850662,-25.62329945,-14.91043502,11.37707924,2.833863604,1.133699718,FDI,,,,,,
12,37,-18,99,0,173,178,0,0,61,0,0,0,70,72,97,80,70,244.04,65,-5,9,-992,36.70391762,-17.8362793,36.51885878,-25.73705474,-15.87132107,9.048324962,2.013719384,-1.090370908,FDI,,,,,,
12,37,-18,99,0,173,178,0,-1,61,0,0,0,70,72,98,80,70,244.06,65,23,27,-982,37.00878817,-17.93839556,36.98562894,-26.11445289,-20.52856295,10.15860184,-1.844252001,0.163643915,FDI,,,,,,
12,37,-17,98,-1,174,-179,0,0,61,0,0,0,70,72,100,80,70,244.06,66,34,16,-951,36.98692648,-17.02767118,37.3967301,-26.73640966,-21.28640582,11.35148654,-1.660382281,1.278855771,FDI,,,,,,
12,37,-17,98,-1,174,-179,0,0,61,0,0,0,70,72,101,80,70,244.06,67,2,30,-1076,36.94722705,-16.92565031,37.79714506,-27.10860915,-21.38006244,10.05024001,-1.217500624,0.009696247,FDI,,,,,,
12,35,-18,101,0,174,-179,0,0,61,0,0,0,70,72,99,80,70,244.04,67,10,12,-1018,35.08116421,-17.84343258,38.70924087,-27.23875956,-23.37628192,8.831507925,-2.908169,-1.0275603,FDI,,,,,,
12,35,-18,101,0,174,-179,0,0,61,0,0,0,70,72,98,80,70,244.01,67,24,42,-1001,34.8636246,-17.95058328,39.12441389,-27.6193435,-20.70246738,10.13217988,-0.210502825,0.299806591,FDI,,,,,,
12,34,-22,101,-2,173,179,0,0,61,0,0,0,70,72,99,80,70,244.11,68,-7,21,-1064,33.93446684,-21.63312755,39.82779235,-26.95507114,-21.24973326,6.352963085,-1.061516312,-3.62647477,FDI,,,,,,
12,34,-22,101,-2,173,179,0,0,61,0,0,0,70,72,101,80,70,244.08,68,-2,2,-926,33.8439523,-22.02981003,40.28864453,-27.27913343,-19.8533193,11.70891815,0.085060441,1.333518684,FDI,,,,,,
12,36,-24,100,-1,173,-179,0,0,61,0,0,0,70,72,106,80,70,244.12,69,11,17,-905,35.69092118,-23.86394052,40.25164894,-27.02451672,-17.62646215,10.59957949,2.012165254,-0.644420115,FDI,,,,,,
12,36,-24,100,-1,173,-179,0,-1,61,0,0,0,71,72,107,80,70,244.18,69,27,23,-981,35.90466844,-24.03027661,40.71342052,-27.25373092,-20.26108805,13.38036289,-0.639103642,1.480851234,FDI,,,,,,
12,37,-22,108,0,173,-178,0,-2,61,0,0,0,71,73,103,80,70,244.12,70,-20,17,-1087,36.83250689,-22.16632676,40.88717306,-27.96304539,-19.70693603,15.82634657,0.227477632,3.233734967,FDI,,,,,,
12,38,-18,103,0,173,-178,0,0,61,0,0,0,71,72,98,80,69,244.12,71,-10,18,-1008,37.84176818,-18.25654461,41.04599662,-29.1995971,-20.10186898,17.21437695,0.088743121,4.376230008,FDI,,,,,,
12,38,-19,96,0,173,-178,-1,0,61,0,0,0,69,72,94,80,69,244.06,72,-3,23,-932,37.93363463,-18.75399133,41.43548403,-29.21712657,-21.65924795,10.43997454,-1.086864746,-1.906603359,FDI,,,,,,
12,38,-19,96,0,173,-178,0,-1,61,0,0,0,69,72,92,80,69,244.06,73,6,15,-1023,37.92019836,-18.85837684,41.80583047,-29.55015122,-21.90848586,10.8130961,-0.955457225,-0.689459264,FDI,,,,,,
12,38,-27,91,0,173,-179,0,-1,61,0,0,0,70,72,95,80,69,244.1,74,-21,25,-970,37.90323081,-26.24939005,42.17230362,-27.82013549,-21.93669505,2.906997168,-0.765165031,-8.277155893,FDI,,,,,,
12,38,-27,91,0,173,-179,0,0,61,0,0,0,70,72,96,80,69,244.15,75,-4,19,-1027,37.89190806,-27.07016562,42.53752869,-28.07238729,-21.93347703,13.58253872,-0.6363066,1.951024778,FDI,,,,,,
12,34,-30,96,0,173,178,0,-1,61,0,0,0,70,72,97,80,69,244.13,75,11,37,-904,34.20725225,-29.83696204,43.93190894,-27.4266181,-25.92834161,12.37030747,-4.556933596,-0.800326215,FDI,,,,,,
12,34,-30,98,1,173,178,0,-1,61,0,0,0,71,73,98,80,69,244.13,76,0,8,-959,33.80153356,-30.08024387,44.33505981,-27.50173015,-20.60074244,16.60919801,0.503268559,2.322672479,FDI,,,,,,
12,34,-30,98,1,173,178,0,-1,61,0,0,0,71,73,99,80,69,244.14,76,9,21,-1010,33.79984158,-30.0368971,44.80120162,-27.52362402,-19.71017466,17.28477033,0.598160818,1.887819662,FDI,,,,,,
12,34,-30,98,1,173,178,0,-1,61,0,0,0,71,73,101,80,69,244.15,77,9,18,-914,33.83028465,-29.98625237,45.27859772,-27.5345303,-19.58875113,17.35835792,0.262757108,1.318934071,FDI,,,,,,
12,40,-24,99,0,173,179,0,-1,61,0,0,0,70,72,99,80,69,244.15,77,25,29,-932,39.36910912,-24.43613642,44.21434048,-29.08644295,-13.5849261,23.34731438,6.010209518,6.936893156,FDI,,,,,,
12,40,-24,99,0,173,179,0,-1,61,0,0,0,70,72,98,80,69,244.14,78,1,24,-996,39.98526607,-23.81328402,44.63768448,-29.15025173,-21.57967634,15.34586239,-1.666447221,-0.816368892,FDI,,,,,,
12,39,-30,100,-1,173,176,0,-1,61,0,0,0,71,73,98,80,69,244.11,78,-8,12,-1013,39.07299324,-29.31866687,45.22437074,-27.7632034,-23.91912775,8.002723762,-2.861505901,-7.057406388,FDI,,,,,,
12,40,-24,99,0,173,-179,-1,-2,61,0,0,0,71,73,95,80,68,244.07,79,-10,7,-1017,39.84916092,-24.44484346,45.28924035,-29.42358309,-21.77266194,21.8020437,-0.137189896,6.904461206,FDI,,,,,,
12,39,-21,96,0,173,179,0,-1,61,0,0,0,70,73,95,80,68,244.1,80,14,18,-1007,38.99860175,-21.1132924,45.87073048,-30.27938091,-23.88880119,18.14000616,-2.014113674,2.828066004,FDI,,,,,,
12,42,-23,97,0,173,-179,0,-1,61,0,0,0,71,73,102,80,68,244.23,80,16,30,-979,41.64447249,-22.62324679,45.41740066,-29.95661736,-19.73767681,11.00599562,2.360248285,-3.34328442,FDI,,,,,,
12,42,-23,97,0,173,-179,0,-1,61,0,0,0,71,73,105,80,68,244.24,81,3,26,-972,41.93161289,-22.84929227,45.71996071,-30.19012494,-23.52799742,12.83556131,-1.222705364,-0.620764172,FDI,,,,,,
12,43,-22,108,-1,173,-179,-2,-1,61,0,0,0,72,73,102,80,68,244.25,83,3,36,-999,42.84896942,-21.97347429,45.71950952,-30.66117748,-23.16096596,14.17738304,-0.252988724,0.903512962,FDI,,,,,,
12,42,-24,107,-1,173,177,0,-1,61,0,0,0,71,73,97,80,68,244.22,83,18,29,-957,42.00595645,-23.72605584,46.21595189,-30.36745952,-25.57691389,10.91081271,-2.241086558,-2.183838091,FDI,,,,,,
12,43,-23,99,-1,173,-179,1,-2,61,0,0,0,71,73,98,80,68,244.27,84,-7,26,-1059,42.80751517,-23.01455392,46.18918611,-30.84252746,-23.46956206,14.3653269,0.191556336,1.385998114,FDI,,,,,,
12,43,-23,99,-1,173,-179,0,-1,61,0,0,0,71,73,101,80,68,244.22,85,-17,15,-935,42.88936528,-22.92574904,46.42212056,-31.04138111,-24.60154129,13.45333852,-0.834153349,0.300001746,FDI,,,,,,
12,44,-29,98,0,173,176,0,-1,61,0,0,0,71,73,100,80,68,244.22,85,42,23,-1016,43.8042652,-28.43471826,46.38336012,-29.70665701,-23.78895694,7.292857441,0.20132295,-5.799809216,FDI,,,,,,
12,44,-29,98,0,173,176,0,-1,61,0,0,0,71,73,99,80,68,244.25,85,18,26,-1069,43.89491366,-29.03843906,46.5895956,-29.8600221,-25.1434882,15.25398149,-0.94321551,1.732760851,FDI,,,,,,
12,44,-23,100,-1,173,-179,0,-1,61,0,0,0,71,73,101,80,68,244.31,86,-3,47,-1093,43.88796323,-23.52225266,46.77922673,-31.46358716,-25.3647235,22.58371338,-0.883083953,7.849970214,FDI,,,,,,
12,41,-22,102,0,173,-179,-1,0,61,0,0,0,71,73,100,80,68,244.2,87,34,10,-945,41.11752683,-21.95367266,47.73796251,-31.82131266,-28.39182856,15.77809235,-3.747320143,0.814661878,FDI,,,,,,
12,44,-26,101,0,173,-178,-1,0,61,0,0,0,71,72,101,80,67,244.18,88,16,34,-1017,43.56634998,-25.49813781,47.1802444,-30.99182324,-21.39744337,9.119579435,3.106392573,-4.924366238,FDI,,,,,,
12,44,-26,101,0,173,-178,0,-1,61,0,0,0,71,73,100,80,67,244.23,88,4,21,-1022,43.86298956,-25.92656347,47.41263597,-31.18414318,-24.72056516,14.02792419,-0.544735947,0.358077138,FDI,,,,,,
12,44,-26,101,0,173,-178,1,-1,61,0,0,0,71,73,100,80,67,244.25,88,-3,34,-1059,43.88323321,-25.95561276,47.60591004,-31.31963376,-25.29414474,14.87108367,-0.823370655,0.759619662,FDI,,,,,,
12,45,-27,101,0,173,-178,0,-1,61,0,0,0,71,73,101,80,67,244.18,89,10,19,-1042,44.79420224,-26.86275136,47.5353539,-31.18841903,-24.38029816,13.99743465,0.265351128,-0.369185904,FDI,,,,,,
12,45,-27,101,0,173,-178,0,0,61,0,0,0,72,73,101,80,67,244.26,89,18,21,-1059,44.88689129,-26.95199464,47.71112335,-31.3029053,-25.71947136,15.34046713,-0.901055972,0.758417798,FDI,,,,,,
12,41,-30,102,0,173,178,0,0,61,0,0,0,72,73,100,80,67,244.25,90,34,15,-988,41.20403204,-29.70290816,48.90035165,-30.62855184,-29.93947169,12.55956054,-4.861216617,-2.306605785,FDI,,,,,,
12,40,-40,99,-2,173,173,0,-3,61,0,0,0,71,73,97,80,67,244.33,91,47,14,-972,39.87208295,-39.18595591,49.35303348,-28.1197569,-25.6431365,6.57921682,-0.72640065,-8.685482352,FDI,,,,,,
12,43,-29,99,0,173,-178,0,-3,61,0,0,0,71,73,94,80,67,244.2,92,26,21,-912,42.5232073,-30.06700184,48.84795872,-30.87163775,-20.42297828,31.55400145,3.679142504,14.79859399,FDI,,,,,,
12,43,-15,95,-2,173,178,1,-1,61,0,0,0,71,73,96,80,67,244.21,93,-40,43,-975,42.85181926,-16.05959042,49.11280737,-34.33575519,-24.07056589,33.22014734,-0.36264734,14.85601104,FDI,,,,,,
12,43,-30,98,0,173,178,0,0,61,0,0,0,72,73,100,80,67,244.31,94,56,20,-972,42.87952012,-28.34753141,49.33592714,-30.61297343,-24.70139786,-2.557073424,-0.73083389,-18.98328968,FDI,,,,,,
12,47,-32,101,0,173,-179,0,-2,61,0,0,0,71,73,100,80,67,244.28,95,46,16,-990,46.55176346,-31.7122431,48.52269845,-30.33482526,-20.79840708,11.96756189,3.322946229,-2.250901183,FDI,,,,,,
12,20,-38,79,0,174,-179,1,0,61,0,0,0,80,81,83,30,65,244.61,113,3,2,-950,17.24137931,-32.75862069,9.172413793,31.57241379,20,-38,20,-38,FDI,,,,,,
12,-2,27,106,0,174,-179,0,0,61,1,0,0,79,81,99,40,65,244.75,117,14,1,-956,0.086021381,20.50227369,13.3207416,14.40419095,-27.86206897,76.13793103,-19.62452107,60.48659004,FDI,,,,,,
12,5,9,103,0,174,-179,0,-2,61,0,0,0,78,80,99,40,65,244.76,120,15,13,-1067,4.258437608,10.91699391,12.79211652,21.5360458,3.293942636,-18.28926544,7.642421827,-20.45325273,FDI,,,,,,
12,6,7,102,0,174,178,0,-2,61,0,0,0,78,81,106,50,65,244.81,122,15,5,-961,5.768200762,7.625721346,13.95025052,24.05082831,-0.735121025,-9.803603318,2.442355325,-7.524691664,FDI,,,,,,
12,7,13,103,0,174,-179,0,0,61,0,0,0,78,81,103,40,65,244.76,122,0,10,-1047,6.880775629,12.64343634,15.04117169,24.65253285,-2.002117977,0.907059269,1.162448966,4.046563621,FDI,,,,,,
12,7,18,104,0,174,-178,1,0,61,0,0,0,77,80,102,40,65,244.78,124,35,13,-1045,7.003123334,17.75147847,16.35611981,25.49386371,-3.721691467,-1.228218611,-0.348294154,2.698932441,FDI,,,,,,
12,8,21,102,0,174,-179,-1,0,61,0,0,0,78,80,99,40,65,244.72,125,-49,37,-1054,7.9227133,20.98348594,17.3946583,26.71175937,-3.005828186,-6.063148229,0.620930338,-0.326278131,FDI,,,,,,
12,8,22,100,-1,174,179,0,-2,61,0,0,0,78,80,98,40,65,244.7,126,10,13,-957,8.013959237,22.14222674,18.67740754,28.31940774,-4.375366408,-10.315054,-0.529682646,-2.489015918,FDI,,,,,,
12,11,22,101,-1,174,-176,0,0,61,0,0,0,77,80,103,40,65,244.73,127,8,-8,-1002,10.76523057,22.15976336,19.17119509,30.10816772,-1.598905028,-12.4573178,2.529403601,-2.871772383,FDI,,,,,,
12,13,25,103,1,174,178,0,0,61,0,0,0,78,80,102,40,65,244.84,128,-12,17,-1006,12.89306353,24.83865475,19.89000851,31.09416206,-3.619296511,-9.75497486,0.906754113,1.003263894,FDI,,,,,,
12,13,25,103,1,174,178,0,0,61,0,0,0,78,80,101,40,65,244.79,129,19,-1,-990,13.08488696,25.08051735,21.05589769,32.81522546,-6.946233206,-13.75537708,-1.554192249,-2.08315356,FDI,,,,,,
12,14,27,103,1,174,178,0,-1,61,0,0,0,77,80,99,40,65,244.76,129,-10,21,-1077,13.97478889,26.88161703,21.92376971,33.97059516,-6.476830672,-12.39803409,-0.26406592,0.290855231,FDI,,,,,,
12,14,27,103,1,174,178,0,0,61,0,0,0,77,80,98,40,64,244.76,130,-29,11,-917,14.03869232,27.0358746,23.03112818,35.61100952,-7.867506564,-15.13148939,-1.107950126,-1.693215785,FDI,,,,,,
12,16,27,98,0,174,179,0,-2,61,0,0,0,77,80,98,40,64,244.75,131,38,-3,-1026,15.85304474,27.00447788,23.6051439,37.21643724,-6.082541669,-15.56604474,1.151997451,-1.373600069,FDI,,,,,,
12,18,35,98,1,173,179,0,-1,61,0,0,0,77,80,101,40,64,244.88,132,17,-17,-906,17.8697587,34.32489012,24.15559028,36.75501764,-6.763531784,-7.611920619,0.904321274,7.019936939,FDI,,,,,,
12,18,35,98,1,173,179,0,0,61,0,0,0,77,80,102,40,64,244.82,132,-36,7,-1016,18.05529207,35.10483933,25.16838387,38.27290577,-9.862780399,-18.25165095,-1.466022133,-2.741556297,FDI,,,,,,
12,18,35,98,1,173,179,0,0,61,0,0,0,77,80,101,40,64,244.81,132,21,19,-945,18.02984921,35.0890144,26.14312577,39.66318903,-10.3599011,-20.01762147,-1.219328447,-2.711909999,FDI,,,,,,
12,19,35,103,1,174,-179,0,-1,61,0,0,0,77,80,104,40,64,244.85,133,7,-1,-1031,18.91624016,35.01653032,26.85276869,41.03002289,-9.416729143,-20.25044067,0.151002293,-1.90854057,FDI,,,,,,
12,20,33,104,-1,174,-176,0,0,61,0,0,0,77,80,104,40,63,244.82,134,0,6,-983,19.91394613,33.12615451,27.55024336,42.90520801,-9.741726647,-22.251918,0.149436906,-3.323549376,FDI,,,,,,
12,20,33,104,-1,174,-176,0,0,61,0,0,0,77,79,102,40,63,244.75,134,36,-6,-1008,20.00054274,32.89342312,28.47846322,44.28206937,-11.28482975,-19.56872574,-0.965111682,-0.452563277,FDI,,,,,,
12,23,38,104,0,174,-177,0,0,60,0,0,0,77,79,103,40,63,244.84,135,38,0,-991,22.74241447,37.47161012,28.61505269,44.40173775,-8.529945389,-14.10841548,2.200382209,4.801688745,FDI,,,,,,
12,23,38,104,0,174,-177,0,-1,60,0,0,0,77,79,104,40,63,244.79,135,1,-4,-961,23.02481839,37.97781553,29.49080074,45.76476128,-12.54937658,-20.69317848,-1.348251346,-1.506504686,FDI,,,,,,
12,24,39,101,1,174,-178,0,0,60,0,0,0,77,79,105,40,63,244.79,136,12,24,-1010,23.93122987,38.90075027,30.06038117,46.79231536,-12.21143656,-20.79586599,-0.256711067,-0.640051267,FDI,,,,,,
12,26,40,105,1,174,-179,0,-1,60,0,0,0,77,79,105,40,63,244.88,136,3,-14,-965,25.83889487,39.88357502,30.35361865,47.79624865,-11.62678553,-21.27780196,0.841558455,-0.485956664,FDI,,,,,,
12,26,40,105,1,174,-179,0,0,60,0,0,0,77,79,104,40,62,244.73,137,-35,-28,-991,26.01746714,39.95658278,31.12383482,49.02844047,-14.50921173,-22.83600288,-1.431308485,-1.447468584,FDI,,,,,,
12,29,41,105,1,174,-179,0,-1,61,0,0,0,77,79,100,40,62,244.72,138,-29,-22,-1010,28.75374301,40.85086295,31.08608218,49.98299492,-11.97405195,-22.07752542,1.779062542,-0.182425132,FDI,,,,,,
12,29,41,105,1,174,-179,0,0,61,0,0,0,77,79,99,40,62,244.74,138,14,-3,-976,29.02487406,40.92718185,31.78436698,51.18081375,-16.02094558,-23.43083348,-1.643886258,-1.164128353,FDI,,,,,,
12,35,39,101,0,174,179,0,0,60,0,0,0,78,80,99,40,62,244.69,139,29,16,-917,34.52064021,39.07251995,30.88836279,52.87611957,-10.68204975,-25.64595588,4.536047658,-3.002871333,FDI,,,,,,
12,37,42,99,0,175,-178,1,-1,61,0,-1,0,76,80,97,40,62,244.68,140,-10,-27,-1022,36.92539999,41.61252047,30.95419916,53.30001073,-16.74906457,-20.00654647,-0.576097832,2.700258572,FDI,,,,,,
12,37,42,99,0,175,-178,0,0,61,0,0,0,76,80,97,40,62,244.69,140,0,47,-1040,37.10001621,41.90252844,31.4177826,54.49743292,-20.73946619,-23.55118334,-2.898190722,-0.894382648,FDI,,,,,,
12,31,44,99,0,174,177,0,-1,61,0,0,0,77,80,99,40,62,244.81,141,5,-9,-982,31.51974357,43.74965889,33.37598927,55.13766093,-27.35285666,-22.15203822,-8.226742414,0.960550891,FDI,,,,,,
12,28,48,100,0,174,178,1,0,61,0,0,0,77,79,101,40,61,244.79,141,3,30,-966,28.09914436,47.61146327,34.60915111,55.23622247,-22.42353437,-20.89893206,-3.031396317,2.636432536,FDI,,,,,,
12,28,48,100,0,174,178,0,-1,61,0,0,0,77,79,101,40,61,244.81,141,22,25,-966,27.76042695,47.9998111,35.18998769,56.29223139,-17.08077944,-26.6717123,1.269204296,-2.264330289,FDI,,,,,,
12,28,48,100,0,174,178,0,-1,61,0,0,0,77,79,100,40,61,244.86,142,2,26,-985,27.78530098,47.97498158,35.83327428,57.27860672,-16.2159643,-27.61541748,1.060215475,-2.062550686,FDI,,,,,,
12,30,51,103,0,174,178,0,-1,61,0,0,0,77,79,97,40,61,244.8,142,16,4,-1005,29.66859291,50.68484006,35.97363721,57.47935542,-14.1090572,-24.73303703,2.564630316,1.477330857,FDI,,,,,,
12,31,53,100,0,174,179,0,-1,61,0,0,0,77,79,96,40,61,244.85,143,8,6,-956,30.81919223,52.7914965,36.35557621,57.90443934,-15.77501791,-26.72189918,0.712805011,0.097096861,FDI,,,,,,
12,31,53,100,0,174,179,0,-1,61,0,0,0,77,79,95,40,61,244.77,143,-21,30,-1056,30.93790138,52.9710507,36.95529185,58.77575209,-17.56335017,-30.03576518,-0.78726331,-2.22358359,FDI,,,,,,
12,31,53,100,0,174,179,0,0,61,0,0,0,77,79,95,40,61,244.75,144,14,20,-1100,30.93304871,52.93420561,37.53444901,59.6059149,-17.85503541,-30.55949694,-0.756941194,-1.849663129,FDI,,,,,,
12,32,57,98,0,174,178,0,-1,61,0,0,0,77,79,96,40,61,244.77,144,46,15,-1031,31.83972648,56.57103234,37.85234514,59.397735,-16.89256096,-26.61520006,0.384645901,2.609830041,FDI,,,,,,
12,32,57,98,0,174,178,0,-1,61,0,0,0,77,79,96,40,61,244.8,144,21,32,-942,31.93121064,56.94560943,38.41687167,60.17756378,-18.22336141,-31.92980379,-0.767366554,-2.095613062,FDI,,,,,,
12,31,58,98,0,174,178,0,0,61,0,0,0,77,79,97,40,60,244.75,145,46,41,-914,31.00607302,57.84769384,39.2225481,60.63534072,-19.44172672,-31.80568547,-1.721062048,-0.973102962,FDI,,,,,,
12,31,58,98,0,174,178,0,-1,61,0,0,0,77,79,97,40,60,244.75,145,0,24,-1018,30.89437199,57.90613415,39.77738531,61.32865083,-18.1379524,-33.24822331,-0.341756515,-1.759353366,FDI,,,,,,
12,31,58,98,0,174,178,0,-1,61,0,0,0,77,79,97,40,60,244.79,145,18,39,-975,30.88677834,57.87672896,40.34709532,62.00262228,-17.91486016,-33.46802126,-0.236562765,-1.444095647,FDI,,,,,,
12,33,58,99,0,174,179,0,-2,61,0,0,0,77,79,97,40,60,244.78,146,-6,14,-1030,32.72880502,57.850682,40.40434482,62.6721433,-15.88146725,-33.48561223,1.730227352,-1.14979228,FDI,,,,,,
12,33,58,99,0,174,179,1,0,61,0,0,0,77,79,98,40,60,244.81,146,-4,26,-996,32.93244482,57.8339573,40.95756286,63.34000341,-18.54026717,-33.47718669,-0.808311956,-0.959144874,FDI,,,,,,
12,35,59,99,0,174,178,0,0,61,0,0,0,77,79,101,40,60,244.72,147,7,31,-993,34.7727283,58.74318654,40.96449213,63.74956426,-16.98519723,-32.46910342,1.137628176,0.157342431,FDI,,,,,,
12,35,59,99,0,174,178,0,0,61,0,0,0,77,79,101,40,60,244.82,147,17,11,-908,34.95863063,58.83740979,41.4612718,64.40634762,-19.70811296,-33.79478027,-1.204926718,-1.025340668,FDI,,,,,,
12,35,59,99,0,174,178,0,0,61,0,0,0,76,78,101,40,60,244.83,147,36,5,-1021,34.94729822,58.83348999,41.92498108,65.04703403,-20.15437281,-34.01358782,-1.114153704,-0.999419665,FDI,,,,,,
12,37,60,102,0,174,179,0,-1,61,0,0,0,76,78,105,40,60,244.85,148,55,9,-1067,36.7633592,59.74268924,41.86749843,65.42725755,-18.21016255,-33.04162157,1.139933341,0.114339207,FDI,,,,,,
12,37,60,102,0,174,179,0,0,61,0,0,0,77,79,107,50,60,244.88,148,39,7,-989,36.94839813,59.83592577,42.30358981,66.05433061,-20.87027529,-34.37218183,-1.187479739,-1.057553284,FDI,,,,,,
12,38,60,104,0,174,178,0,0,61,0,0,-1,77,79,103,40,60,244.77,149,22,14,-1050,37.85769833,59.831296,42.44978575,66.665211,-20.30766352,-34.59124185,-0.109652843,-1.02359106,FDI,,,,,,
12,38,61,109,0,174,178,1,0,61,0,0,0,76,79,99,40,60,244.74,150,39,19,-975,37.93622031,60.74005466,42.83753366,67.01558821,-21.6937559,-33.61901516,-1.119160894,0.095193401,FDI,,,,,,
12,38,61,109,0,174,178,0,-1,61,0,0,0,76,79,99,40,60,244.76,150,10,14,-1021,37.92087669,60.83302448,43.20766936,67.61279295,-21.91423672,-34.94935726,-0.963649241,-1.073651793,FDI,,,,,,
12,38,62,102,-1,174,-179,0,0,61,0,0,0,76,79,101,40,60,244.82,150,22,17,-999,37.90353416,61.74766018,43.57413179,67.93635271,-21.93775614,-34.16827702,-0.768700151,-0.037851957,FDI,,,,,,
12,38,62,102,-1,174,-179,0,0,61,0,0,0,76,79,104,40,60,244.74,151,13,8,-1073,37.89207898,61.83727506,43.93936609,68.50456252,-21.93374677,-35.52696917,-0.638270601,-1.171006428,FDI,,,,,,
12,38,62,102,-1,174,-179,0,-1,61,0,0,0,76,79,104,40,59,244.78,151,3,9,-939,37.88505895,61.82959715,44.30399657,69.05607483,-21.92844911,-35.74833955,-0.558098467,-1.102624741,FDI,,,,,,
12,41,64,102,0,174,178,1,0,61,0,0,0,76,78,104,40,59,244.81,152,-10,6,-958,40.63909558,63.65584187,43.89596354,69.0894545,-18.92481751,-33.775161,2.490384437,1.038273923,FDI,,,,,,
12,41,64,102,0,174,178,0,-1,61,0,0,0,76,78,106,40,59,244.78,152,-35,9,-1067,40.93767676,63.84801052,44.23088978,69.61728426,-22.91557837,-36.43557341,-1.23952739,-1.370132142,FDI,,,,,,
12,41,63,105,0,174,178,1,-1,61,0,0,-1,76,79,103,40,59,244.79,153,-43,26,-951,40.93550621,62.92287135,44.51829629,70.37049134,-23.58046587,-37.87596127,-1.27137786,-2.342676855,FDI,,,,,,
12,42,67,108,0,174,178,0,-1,61,0,0,0,76,79,104,40,59,244.74,153,-33,25,-1088,41.83002809,66.48101121,44.53965645,69.84026908,-22.66969417,-32.60228267,0.003862135,3.123377987,FDI,,,,,,
12,42,67,108,0,174,178,0,-1,61,0,0,0,77,79,106,40,59,244.85,153,40,11,-1035,41.91245887,66.86921561,44.80640108,70.31504851,-24.00245823,-37.70402458,-1.045503981,-1.718733264,FDI,,,,,,
12,42,70,106,0,174,178,1,0,61,0,0,0,77,78,106,40,59,244.76,154,21,-1,-1013,41.90108599,69.62626606,45.05633326,69.95640813,-24.21733235,-35.55670734,-0.934608972,1.22275687,FDI,,,,,,
12,41,72,109,0,174,179,0,-1,61,0,0,0,77,78,108,50,59,244.79,155,2,10,-1018,40.96690416,71.73501016,45.56030295,69.81502432,-25.2417397,-37.66479708,-1.769113328,-0.19131695,FDI,,,,,,
12,41,72,109,0,174,179,0,0,61,0,0,-1,76,79,100,40,59,244.74,156,-9,3,-1035,40.85665017,71.91250183,45.81545785,70.11871356,-23.90791976,-40.99569145,-0.403687649,-2.490021571,FDI,,,,,,
12,43,74,111,0,174,179,1,0,61,0,0,0,76,79,95,40,59,244.72,156,28,7,-1049,42.68964704,73.71286662,45.57100652,69.86611094,-21.68135523,-39.5208755,1.682063072,-0.097570806,FDI,,,,,,
12,42,74,98,-1,174,179,0,0,61,0,0,0,77,79,95,40,59,244.7,157,50,13,-910,41.97530461,73.87171221,46.08198283,70.10026642,-25.3102221,-42.23810291,-1.870331194,-2.132376788,FDI,,,,,,
12,42,74,98,-1,174,179,1,0,61,0,0,0,77,79,95,40,58,244.77,157,28,-12,-899,41.87809138,73.84372388,46.31422628,70.29989407,-24.42068931,-42.6723625,-0.690754935,-1.851433651,FDI,,,,,,
12,42,74,98,-1,174,179,1,0,61,0,0,0,77,79,94,40,58,244.79,157,10,-8,-1002,41.86459428,73.81085939,46.55680206,70.49238499,-24.25976254,-42.71961294,-0.523802199,-1.482228464,FDI,,,,,,
12,45,75,94,0,174,179,1,0,60,0,0,0,77,79,96,40,58,244.75,159,32,-5,-940,44.62065683,74.70849409,46.02849186,70.42507827,-21.23234643,-41.71237847,2.503694856,-0.234141719,FDI,,,,,,
12,46,75,95,0,174,178,0,0,60,0,0,0,76,79,97,40,58,244.79,159,-17,-7,-1172,45.84063555,74.79550957,45.98608124,70.60434085,-24.22072397,-43.03335837,-0.248401296,-1.334571805,FDI,,,,,,
12,46,75,99,0,174,179,1,0,61,0,0,0,76,79,96,40,58,244.72,160,12,13,-1021,45.94012289,74.78722292,46.14400466,70.76714659,-26.21711111,-43.24853784,-1.547860019,-1.258751044,FDI,,,,,,
12,46,75,99,0,174,179,0,0,61,0,0,0,77,79,95,40,58,244.82,160,11,3,-955,45.91578908,74.77436287,46.27758881,70.92671639,-26.52902182,-43.27426744,-1.298022098,-1.11489425,FDI,,,,,,
12,44,74,97,0,174,179,0,-1,61,0,0,0,77,79,97,40,58,244.76,161,-6,28,-1002,44.05146728,73.8462075,46.92090855,71.342726,-28.56120392,-44.272418,-3.011518326,-2.015606042,FDI,,,,,,
12,44,74,97,0,174,179,0,0,61,0,0,0,77,79,99,40,58,244.8,161,9,16,-997,43.83403341,73.7404529,47.06702992,71.5105433,-25.89298688,-42.93753994,-0.315528556,-0.701187122,FDI,,,,,,
12,44,74,97,0,174,179,0,-1,61,0,0,0,77,79,100,40,58,244.92,162,24,11,-992,43.82425257,73.73741193,47.24387586,71.69389345,-25.44105541,-42.71269933,-0.166050415,-0.647546614,FDI,,,,,,
12,44,75,101,0,174,178,0,0,61,0,0,0,77,79,103,40,57,244.86,162,9,17,-1006,43.83407494,74.6628706,47.42590898,71.62249062,-25.37573437,-41.68095889,-0.272045832,0.286644177,FDI,,,,,,
12,49,80,106,0,174,178,1,1,61,0,0,0,77,79,104,40,57,244.83,164,-5,21,-1035,48.43908559,79.36499694,46.32197487,70.51228206,-20.37095626,-38.01016447,4.638877955,3.981331423,FDI,,,,,,
12,-50,-69,83,0,-170,-179,1,0,15,0,0,0,82,84,79,30,67,225.53,213,-17,6,-1080,-27.77777778,-38.33333333,-9.022222222,-6.066666667,-50,-69,-50,-69,FDI,,,,,,
12,-26,-25,101,0,-171,177,0,0,15,0,0,0,82,84,100,50,67,225.6,217,26,16,-980,-33.83563781,-30.8420206,-6.68157697,-7.730900899,15.66666667,32.5,4.864197531,17.59259259,FDI,,,,,,
12,-14,-9,101,0,-170,179,0,-1,15,0,0,0,82,84,103,50,67,225.71,218,1,12,-980,-30.16798371,-15.64744879,-8.796343984,-12.48555475,33.35881516,47.03694084,15.64785237,24.11979143,FDI,,,,,,
12,-14,-9,101,0,-170,179,0,-1,15,0,0,0,82,83,105,50,67,225.69,218,8,42,-983,-26.8648636,-8.335912844,-10.4327954,-15.10363276,25.19404282,30.43275409,4.284038201,5.255582995,FDI,,,,,,
12,-11,-8,106,0,-170,179,0,0,15,0,0,0,81,83,102,50,67,225.71,219,3,23,-980,-22.69056149,-5.064994377,-12.43049808,-17.20383575,22.57538042,20.700017,1.909668856,-1.967455611,FDI,,,,,,
12,-11,-8,106,0,-170,179,1,0,15,0,0,0,81,83,101,50,67,225.68,219,4,15,-1032,-19.89766942,-4.462847402,-14.1230759,-18.85694115,16.46537703,13.62658474,-2.357804816,-4.96777202,FDI,,,,,,
12,-14,-11,105,0,-170,178,1,0,15,0,0,0,81,83,101,50,67,225.7,220,31,16,-982,-19.92374127,-6.928941678,-15.1792011,-19.80244198,10.04662386,6.903783915,-6.275658783,-7.781690313,FDI,,,,,,
12,-14,-11,105,0,-170,178,1,0,15,0,0,0,81,83,102,50,67,225.67,220,28,6,-972,-20.14415564,-8.444833119,-16.32107643,-21.09342884,11.0517671,7.892018232,-3.299665406,-4.029834427,FDI,,,,,,
12,-14,-11,105,0,-170,178,1,0,15,0,0,0,81,84,104,50,67,225.72,220,32,7,-964,-20.39498564,-9.287497613,-17.45754008,-22.47993236,11.8617345,8.782273987,-1.611407463,-1.868144932,FDI,,,,,,
12,-19,-18,103,0,-170,179,0,0,15,0,0,0,81,83,103,50,67,225.65,221,-18,8,-1027,-23.49598538,-14.39506253,-17.78995208,-22.61332248,7.435733698,2.448022604,-5.744077411,-7.748125595,FDI,,,,,,
12,-26,-24,103,0,-170,178,-1,-1,15,0,0,0,82,84,101,50,67,225.7,223,0,15,-1010,-29.65801945,-20.48319118,-17.31475297,-22.53217283,5.370421896,3.280630882,-8.140789763,-7.345968814,FDI,,,,,,
12,-22,-27,102,0,-171,177,0,0,15,0,0,0,80,83,104,50,67,225.75,224,30,11,-991,-31.42981282,-24.68629278,-18.03701195,-22.84521508,18.6200824,9.720405374,3.382714243,-3.034598125,FDI,,,,,,
12,-17,-31,106,0,-171,177,1,-2,15,0,0,0,82,83,100,50,67,225.64,225,-9,-1,-1047,-29.4779991,-28.56186795,-19.52921507,-23.02962032,25.20366207,13.75991978,7.357848548,-2.361573977,FDI,,,,,,
12,-17,-31,106,0,-171,177,0,0,15,0,0,0,82,83,99,50,67,225.71,226,-24,15,-1045,-27.95979039,-29.56385969,-20.77238285,-23.88598536,21.27330011,21.74972649,2.055049472,1.853501746,FDI,,,,,,
12,-17,-31,106,0,-171,177,1,0,15,0,0,0,82,83,102,50,67,225.75,226,24,32,-983,-26.90559042,-29.38390256,-21.9528547,-24.89955715,18.80984896,26.01264846,-0.271493419,2.451361998,FDI,,,,,,
12,-21,-25,102,0,-171,177,0,0,15,0,0,0,81,82,105,50,67,225.77,226,5,18,-1006,-28.54632178,-24.84420422,-22.4335722,-27.08015775,13.37896027,34.0997462,-5.058708434,7.74856001,FDI,,,,,,
12,-22,-29,106,0,-171,177,0,0,15,0,0,0,81,83,102,50,67,225.71,227,-10,17,-1124,-30.30092275,-25.40293612,-22.96793085,-27.75140178,15.26322001,25.53154749,-2.776328407,-2.240263162,FDI,,,,,,
12,-22,-29,106,0,-171,177,0,0,15,0,0,0,81,83,101,50,67,225.7,228,18,28,-1023,-31.46724619,-25.67814724,-23.62006265,-28.74019117,17.91475727,26.33945032,-0.579466384,-1.412249141,FDI,,,,,,
12,-23,-31,105,0,-171,177,1,0,15,0,0,0,81,83,100,50,66,225.68,228,22,6,-994,-32.76348463,-27.14316563,-24.17141467,-29.37340216,18.42003038,24.81609904,-0.879755004,-3.0106147,FDI,,,,,,
12,-23,-31,105,0,-171,177,0,0,15,0,0,0,80,82,99,50,66,225.74,228,6,13,-967,-33.56755511,-27.73539424,-24.82818232,-30.26653411,20.12528885,26.913139,0.008530004,-1.143557178,FDI,,,,,,
12,-23,-31,105,0,-171,177,1,0,15,0,0,0,80,82,101,50,66,225.7,229,28,26,-979,-34.03206543,-27.90175543,-25.5312963,-31.21750258,21.03383283,28.11833322,0.130917804,-0.47258081,FDI,,,,,,
12,-24,-27,102,0,-171,-179,1,0,15,0,0,0,80,82,102,50,66,225.66,229,1,11,-1065,-34.85872822,-25.20964269,-26.10209428,-32.94255954,20.47807701,32.76534825,-1.020627187,3.654434899,FDI,,,,,,
12,-24,-27,102,0,-171,-179,1,0,15,0,0,0,80,82,102,50,66,225.75,229,39,5,-990,-35.37327832,-24.06094993,-26.75359154,-34.17329859,21.58414958,29.43486816,-0.37654389,0.208311794,FDI,,,,,,
12,-24,-30,103,0,-171,177,0,0,15,0,0,0,80,82,105,50,66,225.66,230,32,18,-1028,-35.67268496,-25.70771615,-27.43428684,-34.73294092,22.18116119,24.466228,-0.239502199,-4.09996057,FDI,,,,,,
12,-24,-30,103,0,-171,177,0,0,15,0,0,0,81,82,106,50,66,225.75,231,-1,18,-1009,-35.8350772,-26.50386617,-28.13360679,-35.62112574,22.47950295,26.12379269,-0.295116949,-1.866224203,FDI,,,,,,
12,-23,-31,105,0,-171,176,0,0,15,0,0,-1,81,82,100,50,65,225.67,231,-14,16,-1024,-35.33850005,-27.49986277,-29.00571569,-36.38693821,23.614509,26.16242939,0.60472964,-1.866287095,FDI,,,,,,
12,-24,-34,106,1,-170,179,1,0,15,0,0,0,81,82,96,50,65,225.68,232,20,10,-1016,-35.56014473,-29.87317073,-29.65867132,-36.74721592,21.75425016,24.68072353,-1.324354043,-3.666656239,FDI,,,,,,
12,-24,-34,106,1,-170,179,1,0,15,0,0,0,81,82,95,40,65,225.73,232,2,-4,-1024,-35.71998052,-30.75251916,-30.35819519,-37.52346864,22.15417463,28.27456617,-0.836779375,-0.780255948,FDI,,,,,,
12,-24,-34,106,1,-170,179,1,0,15,0,0,0,81,82,98,50,65,225.72,232,11,28,-1009,-35.82617524,-30.92930226,-31.06485304,-38.39536122,22.39894003,30.30443653,-0.619706574,0.110900194,FDI,,,,,,
12,-27,-36,97,0,-170,-179,1,0,15,0,0,1,81,82,102,50,65,225.69,233,24,16,-974,-37.62526899,-32.17314701,-31.29163127,-38.92804477,19.5395133,29.36706717,-3.541327284,-1.859169675,FDI,,,,,,
12,-27,-36,97,0,-170,-179,0,0,15,0,0,0,81,82,105,50,65,225.69,233,22,14,-959,-38.84123138,-32.55317842,-31.71235842,-39.71863381,22.3535212,31.69949099,-0.997767193,-0.426443736,FDI,,,,,,
12,-27,-40,105,0,-170,-179,0,0,15,0,0,-1,80,82,103,50,65,225.71,234,3,-10,-983,-39.60172534,-35.24077194,-32.19498129,-39.80851384,23.97509653,28.96689218,-0.113059761,-4.108674526,FDI,,,,,,
12,-28,-42,111,0,-170,-179,0,-1,15,0,0,0,80,82,98,50,65,225.72,235,18,5,-900,-40.6218286,-37.54934478,-32.55932532,-40.03926996,23.84359583,31.25466009,-0.979415263,-2.851679574,FDI,,,,,,
12,-28,-43,102,0,-170,-179,0,0,15,0,0,0,80,82,98,50,64,225.75,235,-9,10,-1006,-41.25287454,-38.93428069,-33.01498276,-40.4404362,25.18299162,34.4809666,-0.276741691,-1.195065847,FDI,,,,,,
12,-28,-43,102,0,-170,-179,0,0,15,0,0,0,79,82,97,50,64,225.69,236,3,38,-1069,-41.61696784,-39.22665794,-33.5070027,-41.05978895,25.89717175,37.69718567,-0.170383625,0.245282961,FDI,,,,,,
12,-28,-43,102,0,-170,-179,0,0,15,0,0,0,79,82,97,50,64,225.73,236,12,23,-987,-41.81209926,-39.09270972,-34.02206153,-41.73511358,26.24753138,39.38408445,-0.278693222,0.336907851,FDI,,,,,,
12,-28,-40,100,0,-170,179,0,0,15,0,0,0,80,82,99,50,64,225.52,237,37,18,-937,-41.90792376,-36.84441486,-34.55062426,-42.98515743,26.40119715,43.19352554,-0.42570882,2.979642225,FDI,,,,,,
12,-27,-39,101,2,-170,-179,0,0,15,0,0,0,80,82,98,50,64,225.64,237,6,47,-999,-41.37189515,-35.15156409,-35.24826578,-44.04140846,27.45730134,41.79786807,0.454874484,1.04686796,FDI,,,,,,
12,-29,-41,101,0,-170,179,1,0,15,0,0,0,80,82,99,50,64,225.59,238,-43,-20,-1066,-42.14964367,-35.85133063,-35.56253791,-44.50628437,24.55748256,37.41744421,-2.465443436,-2.999070416,FDI,,,,,,
12,-29,-41,101,0,-170,179,0,0,15,0,0,0,80,82,98,50,64,225.65,238,-5,37,-1047,-42.69119509,-36.25631713,-35.98530163,-45.15233656,25.85250557,37.88340291,-1.119571,-1.952508003,FDI,,,,,,
12,-29,-41,101,0,-170,179,0,0,15,0,0,0,80,81,100,50,64,225.63,239,-7,-5,-963,-43.03914805,-36.46961259,-36.43421652,-45.82517364,26.61865869,38.22288201,-0.59117312,-1.378942717,FDI,,,,,,
12,-31,-41,101,0,-170,-179,1,0,15,0,0,0,80,82,101,50,63,225.66,240,7,30,-976,-44.40269275,-36.56921109,-36.57864721,-46.51386246,25.04153046,38.44877426,-2.45436636,-1.095095547,FDI,,,,,,
12,-29,-40,104,3,-170,179,0,0,15,0,0,0,80,82,99,50,63,225.65,240,-12,-6,-969,-44.14801796,-35.93729771,-37.1860526,-47.39870179,29.08304445,39.58798544,1.208982911,0.026297965,FDI,,,,,,
12,-32,-41,102,2,-170,-179,1,0,15,0,0,0,80,82,100,50,62,225.6,241,-6,15,-999,-45.64864507,-36.34529267,-37.22870274,-47.9747486,25.41313545,37.75485999,-2.94809498,-1.777487018,FDI,,,,,,
12,-32,-41,102,2,-170,-179,0,0,15,0,0,0,80,82,99,50,62,225.65,241,19,36,-977,-46.64866207,-36.53836276,-37.45426998,-48.65072995,27.70303562,38.18185601,-0.980563586,-1.229843968,FDI,,,,,,
12,-34,-40,103,0,-171,179,1,0,15,0,0,0,80,82,102,50,62,225.66,242,-3,-4,-1005,-48.42275301,-35.9443283,-37.4080655,-49.53056222,27.01098502,39.4462612,-2.316740913,0.008842391,FDI,,,,,,
12,-34,-40,103,0,-171,179,0,0,15,0,0,0,80,82,101,50,62,225.65,243,-28,-8,-1009,-49.5643446,-35.69265132,-37.52444181,-50.2930002,29.53154563,38.68574775,-0.547897761,-0.753524631,FDI,,,,,,
12,-34,-42,104,0,-170,-179,0,0,15,0,0,0,80,82,99,50,62,225.7,243,40,36,-947,-50.2479966,-36.95405764,-37.7031685,-50.65644304,30.92620585,36.23899612,-0.074399647,-3.04193113,FDI,,,,,,
12,-34,-42,104,0,-170,-179,0,0,15,0,0,0,80,82,99,50,62,225.64,244,-6,11,-1081,-50.62897853,-37.49260963,-37.92323626,-51.26009707,31.64055619,37.82033651,-0.131280388,-1.421526568,FDI,,,,,,
12,-34,-43,101,0,-170,-179,0,1,15,0,0,0,80,82,100,50,62,225.61,244,-26,-18,-972,-50.82487441,-38.33417748,-38.16856515,-51.72660738,31.97247182,37.75326566,-0.341132863,-1.803548915,FDI,,,,,,
12,-34,-43,101,0,-170,-179,1,0,15,0,0,0,80,82,97,50,62,225.7,245,-37,-14,-1068,-50.91579699,-38.61410085,-38.42815539,-52.34028191,32.10587785,39.17814326,-0.543896147,-0.817937283,FDI,,,,,,
12,-34,-45,100,0,-170,-178,0,0,15,0,0,0,80,82,97,50,61,225.58,245,-20,-13,-1020,-50.95189013,-39.98242525,-38.69512153,-52.61272422,32.14605915,37.96492236,-0.689580197,-2.565978685,FDI,,,,,,
12,-34,-45,100,0,-170,-178,0,0,15,0,0,0,80,82,98,50,61,225.62,246,24,0,-957,-50.96215891,-40.46295993,-38.96549423,-53.14711797,32.1485596,40.19187812,-0.77660315,-0.92610882,FDI,,,,,,
12,-34,-45,100,0,-170,-178,0,0,15,0,0,0,80,82,98,50,61,225.6,246,30,15,-968,-50.96203176,-40.537146,-39.2371785,-53.73648381,32.13986848,41.43282867,-0.81971597,-0.459610017,FDI,,,,,,
12,-35,-46,99,0,-170,-179,1,0,15,0,0,0,81,82,101,50,61,225.6,246,-6,-20,-987,-51.53669245,-41.13109034,-39.3474062,-54.15777432,31.13085919,41.07357615,-1.835376109,-1.483269295,FDI,,,,,,
12,-35,-46,99,0,-170,-179,0,0,15,0,0,0,81,82,101,50,61,225.68,247,26,12,-1020,-51.92626104,-41.29616067,-39.52095925,-54.70731913,32.03765694,42.28724028,-0.993687959,-0.813261546,FDI,,,,,,
12,-35,-47,101,0,-170,-179,0,0,15,0,0,0,81,82,101,50,61,225.69,247,14,14,-987,-52.17081834,-41.95260337,-39.71417381,-55.09288387,32.56270141,41.93815739,-0.69090201,-1.690093761,FDI,,,,,,
12,-35,-47,101,0,-170,-179,0,0,15,0,0,0,80,82,100,50,61,225.68,247,15,-11,-969,-52.31373789,-42.1560032,-39.92125965,-55.61017595,32.845763,43.17330081,-0.635270628,-0.926414261,FDI,,,,,,
12,-37,-49,102,0,-171,-179,1,0,15,0,0,0,80,82,97,50,61,225.69,248,46,14,-993,-53.54683024,-43.5036429,-39.81372763,-55.77832673,30.98615561,41.84502216,-2.672267566,-2.749609223,FDI,,,,,,
12,-37,-49,102,0,-171,-179,0,0,15,0,0,0,80,82,95,50,60,225.63,248,9,-1,-1010,-54.37065424,-43.9879929,-39.83830662,-56.20498143,32.87414247,44.00894928,-1.043515846,-1.115911193,FDI,,,,,,
12,-37,-49,102,0,-171,-179,0,0,15,0,0,0,80,82,97,50,60,225.68,249,31,0,-1005,-54.88101536,-44.07382091,-39.90547708,-56.6855273,33.95326991,45.21934429,-0.496221529,-0.629778257,FDI,,,,,,
12,-35,-52,97,0,-170,-179,0,0,15,0,0,0,80,82,99,50,60,225.71,249,4,5,-945,-54.01972685,-46.01978399,-40.32572546,-56.62273441,36.5265345,42.84784646,1.569541449,-3.629154019,FDI,,,,,,
12,-35,-52,101,0,-171,-179,2,0,15,0,0,0,80,82,101,50,60,225.76,250,-3,-14,-1026,-53.39168671,-46.73557143,-40.63792047,-56.93901856,34.97985428,45.88415076,-0.220054507,-1.253254545,FDI,,,,,,
12,-35,-52,101,0,-171,-179,0,0,15,0,0,0,80,82,103,50,60,225.73,250,5,-18,-1036,-52.9750532,-46.87694648,-40.92142524,-57.33315578,34.0441427,47.59199613,-0.94629131,-0.520486308,FDI,,,,,,
12,-35,-52,101,0,-171,-179,0,0,15,0,0,0,80,82,105,50,60,225.75,250,2,1,-938,-52.71987813,-46.79713783,-41.18279099,-57.75626256,33.51850406,48.48411716,-1.148935915,-0.492755791,FDI,,,,,,
12,-38,-52,103,-1,-170,-178,1,0,15,0,0,-1,80,82,102,50,60,225.68,251,-6,16,-1060,-54.30853025,-46.66594745,-40.9436133,-58.1850913,30.24652524,48.90984031,-4.130828151,-0.694652276,FDI,,,,,,
12,-37,-50,109,1,-170,-179,0,0,15,0,0,0,80,82,100,50,60,225.62,252,7,0,-929,-54.83326067,-45.21162361,-41.04686548,-58.98576403,33.85827743,51.08858357,-0.516908182,1.084269207,FDI,,,,,,
12,-40,-50,102,0,-170,179,1,0,15,0,0,0,79,82,96,50,60,225.62,253,15,3,-890,-56.87864531,-44.59141912,-40.65539648,-59.53035639,31.47919129,49.32247684,-3.380699753,-0.768737171,FDI,,,,,,
12,-36,-48,100,0,-170,-179,0,0,15,0,0,0,80,81,99,50,60,225.69,254,12,13,-1041,-55.91690695,-43.05622808,-41.1205931,-60.39145708,38.52728751,50.27563228,3.060904209,0.531901159,FDI,,,,,,
12,-35,-51,101,1,-171,-179,2,0,15,0,0,0,79,81,98,50,60,225.67,255,1,-12,-1030,-54.59457824,-44.51847479,-41.56525101,-60.41358161,37.5968052,44.87471771,1.444988514,-4.305512437,FDI,,,,,,
12,-35,-51,101,1,-171,-179,0,0,15,0,0,0,79,81,97,40,60,225.65,256,-58,-7,-1179,-53.68556986,-45.23964165,-41.91581957,-60.74921298,35.47268127,46.26747658,-0.560966021,-2.308000195,FDI,,,,,,
12,-39,-53,100,0,-170,-179,0,-1,15,0,0,0,79,81,96,50,59,225.65,256,-4,20,-1051,-55.42135572,-46.88430268,-41.57378201,-60.76757698,30.23889576,45.15387401,-5.266087495,-3.393849516,FDI,,,,,,
12,-38,-55,99,0,-170,179,1,0,15,0,0,0,80,81,95,40,59,225.58,257,0,-1,-993,-56.07649073,-48.85927033,-41.61449283,-60.69029001,34.22583237,45.50316325,-1.004850662,-3.368632191,FDI,,,,,,
12,-38,-55,99,0,-170,179,0,0,15,0,0,0,80,81,95,40,59,225.62,257,0,5,-1011,-56.48728083,-49.55017702,-41.64993363,-60.92980641,35.09792067,48.67147486,-0.546485228,-1.018832331,FDI,,,,,,
12,-38,-55,99,0,-170,179,0,0,15,0,0,0,78,81,99,50,59,225.72,258,-22,0,-1025,-56.72614886,-49.65246602,-41.70897166,-61.24920551,35.56302399,50.43888709,-0.494279542,-0.362212064,FDI,,,,,,
12,-42,-54,96,1,-171,-178,0,1,15,0,0,0,79,82,100,50,59,225.57,259,6,18,-1035,-59.16558568,-48.86685562,-41.13608829,-61.7847169,31.78925663,52.3505821,-4.586730004,0.587736919,FDI,,,,,,
12,-34,-58,101,0,-170,-179,1,0,15,0,0,0,79,81,98,40,59,225.61,260,21,22,-995,-56.17656277,-51.11876972,-42.12001898,-61.44889476,43.53729563,47.86390783,6.668445109,-4.518275347,FDI,,,,,,
12,-34,-58,101,0,-170,-179,0,0,15,0,0,0,79,81,97,40,59,225.67,260,-2,21,-1032,-54.04888751,-51.9959322,-42.68102002,-61.58232188,38.37931532,51.15923927,1.023384382,-1.707908584,FDI,,,,,,
12,-34,-58,101,0,-170,-179,0,0,15,0,0,0,79,81,97,40,59,225.64,260,-12,-4,-965,-52.66071403,-52.21292816,-43.14185821,-61.80554317,35.29549312,53.03908365,-1.223583117,-0.759511053,FDI,,,,,,
12,-38,-59,99,0,-170,-178,1,0,15,0,0,0,80,81,97,40,59,225.6,261,-43,-8,-1057,-54.13242914,-52.83251898,-42.88054788,-61.87651969,29.57977108,53.03714645,-5.821910027,-1.638945899,FDI,,,,,,
12,-37,-58,99,0,-170,-179,0,0,15,0,0,0,80,81,96,40,59,225.64,261,7,35,-1021,-54.65426982,-52.30890845,-42.98404537,-62.26913461,33.35054519,55.43642907,-1.368465612,0.032323441,FDI,,,,,,
12,-37,-58,99,0,-170,-179,0,-1,15,0,0,0,79,81,98,50,59,225.63,262,-7,-12,-1095,-55.00521247,-51.99635427,-43.07224537,-62.561202,34.14205456,55.26256998,-0.739732677,-0.731206622,FDI,,,,,,
12,-39,-57,99,0,-170,-179,0,0,15,0,0,0,79,81,99,50,58,225.67,263,12,24,-1010,-56.37754343,-51.16048515,-42.85538346,-63.01972702,32.58832318,56.09357043,-2.568914703,-0.154362761,FDI,,,,,,
12,-39,-55,101,2,-170,179,0,1,15,0,0,0,79,81,100,50,58,225.64,264,17,12,-943,-57.28630824,-49.47417426,-42.77821956,-63.71528606,34.64477934,57.05265655,-0.905883325,0.798507991,FDI,,,,,,
12,-39,-55,101,2,-170,179,0,0,15,0,0,0,79,81,99,50,58,225.69,264,2,20,-1010,-57.84403112,-48.83258026,-42.74890615,-64.12639161,35.80759674,54.61508596,-0.391757875,-1.263587726,FDI,,,,,,
12,-41,-55,103,0,-170,-179,0,-1,15,0,0,0,79,81,100,50,58,225.67,264,2,7,-984,-59.31768503,-48.68993293,-42.42884826,-64.46927575,34.41673919,53.22645732,-2.374398011,-1.923389476,FDI,,,,,,
12,-41,-55,103,0,-170,-179,0,0,15,0,0,0,78,81,102,50,58,225.71,265,-3,2,-937,-60.27054536,-48.74634454,-42.25619951,-64.78565014,36.53293007,52.49382193,-0.835034206,-1.967257303,FDI,,,,,,
12,-39,-57,101,0,-170,-179,0,0,15,0,0,0,78,81,103,50,58,225.74,265,4,15,-1015,-59.68838725,-50.19452272,-42.45873044,-64.7205905,39.71000837,50.141812,1.599504482,-3.80157985,FDI,,,,,,
12,-39,-57,101,0,-170,-179,0,0,16,0,0,0,78,81,106,50,58,225.73,266,-14,12,-1024,-59.22439257,-50.83390212,-42.56888943,-64.90813749,38.49118947,51.81955946,-0.11114052,-1.925278755,FDI,,,,,,
12,-39,-57,105,0,-171,-179,0,-1,15,0,0,-1,79,81,102,50,58,225.74,267,-11,40,-1078,-58.89738892,-51.05238345,-42.66051894,-65.15391463,37.71973739,52.82719389,-0.87014256,-1.180851024,FDI,,,,,,
12,-39,-57,109,0,-171,-179,0,0,15,0,0,0,79,81,100,50,58,225.72,267,35,3,-974,-58.68723821,-51.07848898,-42.73608929,-65.42595764,37.26818627,53.38896499,-1.132242114,-0.986948567,FDI,,,,,,
12,-39,-57,109,0,-171,-179,0,0,15,0,0,0,79,81,100,50,57,225.77,267,39,12,-976,-58.56278974,-51.03433989,-42.79981018,-65.70727,37.02455387,53.67706682,-1.166161342,-1.020452124,FDI,,,,,,
12,-40,-57,102,0,-171,-178,0,0,15,0,0,0,79,81,99,50,57,225.69,268,-11,11,-988,-59.07278273,-50.97769628,-42.69390602,-65.98989255,35.90530186,53.80973167,-2.115981659,-1.119786714,FDI,,,,,,
12,-40,-57,102,0,-171,-178,0,0,15,0,0,0,79,81,99,50,57,225.65,268,-20,23,-1009,-59.43196793,-50.93098812,-42.64665034,-66.27080777,36.7673519,53.86129916,-1.207392354,-1.215448507,FDI,,,,,,
12,-39,-57,103,0,-170,178,0,0,15,0,0,0,78,81,98,50,57,225.67,269,18,11,-963,-59.08650269,-50.89936803,-42.77838082,-66.54939634,38.27879251,53.87486958,0.144936635,-1.285283052,FDI,,,,,,
12,-39,-57,103,0,-170,178,0,0,15,0,0,0,78,81,97,50,57,225.59,269,8,16,-1022,-58.83321527,-50.88089343,-42.85943296,-66.82600718,37.64819014,53.87337262,-0.611651165,-1.328326442,FDI,,,,,,
12,-38,-59,101,0,-170,179,0,-1,15,0,0,0,77,80,96,50,57,225.66,270,13,0,-1004,-58.08629653,-52.21191849,-43.09090938,-66.72596964,38.2636301,51.8677789,0.069570393,-3.350969284,FDI,,,,,,
12,-45,-58,96,2,-170,179,0,0,15,0,0,0,79,80,97,50,57,225.78,271,14,13,-1013,-61.63369181,-52.07978202,-42.11770387,-67.06316155,30.13245538,54.68824449,-7.872498913,-0.675006566,FDI,,,,,,
12,-37,-59,98,0,-170,-179,0,-1,15,0,0,0,79,80,97,50,57,225.69,272,-8,24,-1031,-59.45338788,-52.6274349,-42.85654798,-67.14081846,43.87963412,53.82790395,5.725386007,-1.924780177,FDI,,,,,,
12,-36,-60,101,0,-170,179,0,0,15,0,0,0,78,80,94,40,57,225.63,273,8,25,-1005,-57.28544753,-53.4784942,-43.37095444,-67.15108145,40.93445287,53.7785549,2.045853258,-2.280657495,FDI,,,,,,
12,-36,-60,101,0,-170,179,0,-1,15,0,0,0,78,80,93,40,57,225.67,273,-6,22,-1006,-55.83476177,-53.76679464,-43.75018601,-67.30855546,37.62183177,55.21479389,-0.761177932,-1.272988176,FDI,,,,,,
12,-40,-60,97,0,-170,178,0,0,15,0,0,0,78,80,93,40,57,225.62,273,-6,15,-1059,-57.24773716,-53.80149423,-43.40697576,-67.50025076,31.73417623,56.00945775,-5.666058188,-1.003848954,FDI,,,,,,
12,-40,-60,95,0,-170,179,0,-1,15,0,0,0,77,81,95,40,57,225.66,274,39,19,-1007,-58.30179393,-53.7452679,-43.26505652,-67.70368429,34.38872137,56.41641326,-2.362950806,-1.036996088,FDI,,,,,,
12,-40,-60,95,0,-170,179,0,0,15,0,0,0,77,81,96,50,57,225.81,275,-11,31,-1077,-59.01394676,-53.6737908,-43.16930275,-67.90852852,36.02095775,56.6054167,-0.954110971,-1.157208272,FDI,,,,,,
12,-40,-58,98,0,-170,179,1,0,15,0,0,0,78,80,99,50,57,225.7,275,34,19,-1034,-59.45759198,-52.27552125,-43.11027133,-68.48625642,36.95398637,58.6813012,-0.50403809,0.726773682,FDI,,,,,,
12,-40,-61,100,1,-170,-179,0,0,15,0,0,0,78,80,99,50,57,225.74,276,-18,25,-1023,-59.71368259,-53.70589367,-43.07702046,-68.24757302,37.44701461,53.87839519,-0.476691611,-4.042088864,FDI,,,,,,
12,-40,-61,100,1,-170,-179,0,0,15,0,0,0,78,80,99,50,57,225.76,276,-27,25,-1012,-59.84999137,-54.34763324,-43.06024805,-68.32822776,37.68365354,55.56219559,-0.593705138,-2.158895036,FDI,,,,,,
12,-41,-61,102,0,-171,-178,0,0,15,0,0,0,77,80,97,50,57,225.66,277,18,14,-958,-60.4934919,-54.57693622,-42.8913836,-68.4656809,36.78246481,56.57347935,-1.728105571,-1.388595009,FDI,,,,,,
12,-40,-61,100,1,-170,-179,0,0,15,0,0,0,77,80,97,50,57,225.74,278,12,18,-987,-60.33577346,-54.61552859,-42.95291503,-68.6290321,38.72685971,57.13991508,0.009128064,-1.164731232,FDI,,,,,,
12,-40,-61,100,1,-170,-179,0,0,15,0,0,0,77,80,97,50,56,225.77,278,4,26,-1086,-60.19840112,-54.58229754,-42.97342016,-68.80180056,38.34501699,57.43362649,-0.604458336,-1.171673641,FDI,,,,,,
12,-40,-62,99,1,-170,-178,0,0,15,0,0,0,78,80,98,50,56,225.71,279,64,17,-957,-60.09635485,-55.20406499,-42.98917247,-68.78857519,38.09451646,56.57196268,-0.891106557,-2.250512636,FDI,,,,,,
12,122,-15,82,1,152,-179,0,0,137,0,0,0,71,73,79,70,41,241.88,3,-8,18,-1052,105.1724138,-12.93103448,-15.44827586,26.02068966,122,-15,122,-15,FDI,,,,,,
12,-5,21,113,0,152,175,2,0,137,0,0,0,71,73,103,90,40,242.17,10,-42,14,-1085,6.938227971,17.30537315,13.16074444,15.69587483,-162.7586207,40.39655172,-112.5095785,34.2183908,FDI,,,,,,
12,-6,22,109,3,152,177,-1,-2,137,0,1,0,71,74,103,90,40,242.23,11,26,23,-1039,-6.438673879,22.03483875,13.28642083,17.76428365,-25.88201785,-2.382099276,2.5362262,-0.51788101,FDI,,,,,,
12,-3,22,104,-5,152,179,0,0,137,0,0,0,71,74,104,90,40,242.16,12,-18,-1,-1087,-4.649326296,22.39238264,13.80971863,19.63959948,2.675921675,-11.33818049,18.00311107,-5.128922051,FDI,,,,,,
12,-3,22,104,-5,152,179,0,-1,137,0,0,0,72,73,105,90,40,242.21,12,11,4,-960,-3.932595156,22.26197225,15.33798108,21.4222201,2.557195306,-12.70283086,10.59909645,-3.968189416,FDI,,,,,,
12,26,21,101,0,152,179,1,1,137,0,0,0,72,73,101,80,40,242.1,15,-3,21,-1026,23.09351799,21.21766031,9.424483813,23.44024776,31.2358981,-13.83157382,35.40023051,-3.61781172,FDI,,,,,,
12,20,19,105,0,152,179,0,0,137,0,-1,0,72,73,101,90,40,241.97,17,21,18,-934,20.72228173,19.19654252,12.24693008,25.71741533,-13.55677922,-14.46559057,-9.328958475,-3.450925724,FDI,,,,,,
12,22,24,100,1,152,178,0,-1,137,1,0,0,72,74,97,80,39,241.99,20,21,11,-985,22.09051477,23.54195819,12.62359457,26.22374678,-10.13772981,-6.542568753,-1.887263461,4.641544985,FDI,,,,,,
12,21,23,99,0,152,-179,0,0,137,0,0,0,72,74,100,90,38,242.13,22,5,23,-1011,21.2240669,23.10241206,13.77189618,28.25783173,-13.41181277,-13.69673861,-3.682845182,-2.325965547,FDI,,,,,,
12,23,27,108,1,152,179,0,-1,137,0,0,0,72,74,97,80,36,242.11,24,29,0,-1052,22.89166068,26.68202076,14.12492552,28.94049163,-10.41105239,-9.399181151,0.345643926,2.812060383,FDI,,,,,,
12,27,26,100,1,152,-179,2,1,137,0,0,0,72,75,105,90,35,242.08,27,-17,-14,-999,26.71439621,26.12849038,13.95118944,30.87399995,-8.866311555,-15.64213815,2.489885616,-2.78824755,FDI,,,,,,
12,28,26,101,-1,152,178,0,-1,138,0,-1,0,72,75,97,80,34,242.1,30,18,4,-989,28.00758549,26.00900403,14.47880133,32.49592489,-13.58334357,-15.17370512,-1.240383529,-1.391633332,FDI,,,,,,
12,20,33,100,0,151,178,0,1,137,0,-1,0,73,75,97,80,32,242,32,-16,22,-1004,20.72005631,32.40264442,17.2437414,32.31946115,-23.84444466,-8.060615596,-10.20336314,6.098774528,FDI,,,,,,
12,20,33,100,0,151,178,0,0,137,0,0,0,73,75,95,80,32,241.96,32,33,-4,-985,19.86389808,33.08378759,17.99748756,33.87634375,-13.53108516,-17.34474353,0.395792409,-2.425413873,FDI,,,,,,
12,20,33,100,0,151,178,0,0,137,0,0,0,73,75,95,80,32,242.03,33,20,33,-1056,19.82156044,33.06987908,18.87061724,35.32178166,-11.77772684,-18.88594833,1.025587131,-2.398434877,FDI,,,,,,
12,26,34,94,1,151,-179,0,-1,137,0,-1,0,73,75,101,90,31,242.06,35,3,19,-1031,25.37406401,33.92593311,18.21915255,36.48929473,-5.522478455,-18.08909463,6.639058895,-0.696023239,FDI,,,,,,
12,27,28,105,1,151,178,0,0,137,0,0,0,72,75,103,90,30,242.13,37,-26,-1,-1094,26.92510521,28.46471326,18.80126427,39.443461,-12.48882403,-25.42133583,-0.210728852,-7.437664199,FDI,,,,,,
12,24,31,106,1,151,-179,1,-2,138,0,0,0,74,75,100,90,29,242.12,38,23,-13,-1010,24.28453576,30.59255566,20.31042262,40.12066274,-18.16184505,-14.63886735,-4.774619682,3.38311368,FDI,,,,,,
12,31,38,102,0,152,-179,1,-1,137,1,0,0,73,76,101,90,28,242.04,41,-1,4,-974,30.38251954,37.30601741,19.24242262,39.8295089,-7.580025978,-10.31527933,6.368192963,7.004544428,FDI,,,,,,
12,28,41,102,0,151,-179,1,0,137,0,-1,0,72,75,100,90,27,242.07,42,32,20,-978,28.29157296,40.79827082,20.72131126,40.46817051,-19.27124506,-17.11027339,-4.9488099,0.836930086,FDI,,,,,,
12,28,41,102,0,151,-179,0,0,137,0,0,0,72,75,99,80,27,242.1,43,52,16,-969,27.98960019,41.09898287,21.35256912,41.73463568,-16.73333179,-22.73566845,-1.303840396,-3.056086502,FDI,,,,,,
12,28,41,102,0,151,-179,0,-1,137,0,0,0,72,75,100,80,27,242.04,43,2,13,-1017,27.93741966,41.04077888,22.01239302,42.93299891,-16.26397811,-23.62302389,-0.67137625,-2.470506719,FDI,,,,,,
12,29,34,104,0,152,-179,1,-1,137,0,0,0,73,75,101,90,26,242,44,1,25,-1087,28.84246468,34.53898814,22.4182488,45.91936676,-15.17869852,-30.71915374,0.499188436,-8.731347309,FDI,,,,,,
12,29,41,103,0,152,-179,2,0,137,0,0,0,73,75,100,80,26,242.01,45,9,15,-1017,28.93634589,40.22887893,23.07194037,45.36493815,-16.49217444,-14.38784122,-0.678573603,7.534482383,FDI,,,,,,
12,27,39,102,0,152,179,0,0,137,0,0,0,73,75,101,90,26,242.01,46,30,1,-958,27.0936323,39.06754051,24.22450386,47.16774108,-18.70918614,-24.13031707,-2.653166192,-2.817529093,FDI,,,,,,
12,28,44,102,1,151,-177,2,-1,137,0,0,0,73,75,100,90,25,242.06,47,19,15,-1053,27.80213863,43.50230836,24.62117744,47.09591295,-15.07499167,-17.7990268,0.965957471,4.139452856,FDI,,,,,,
12,28,44,102,1,151,-177,0,0,138,0,0,0,73,75,98,80,25,242.02,47,7,7,-1101,27.8958381,43.97956486,25.29630275,48.27895027,-15.96138016,-24.20620143,-0.173448106,-1.824895965,FDI,,,,,,
12,29,43,103,0,152,177,0,0,138,0,0,0,73,75,97,80,25,242.05,47,67,20,-1004,28.82664493,43.05391967,25.70348667,49.6426068,-15.12042241,-26.27280139,0.683795015,-2.844907508,FDI,,,,,,
12,30,42,100,0,152,179,0,0,137,0,0,0,73,75,96,80,24,242.05,49,53,18,-1000,29.84739164,41.9922768,26.09941858,51.00196695,-15.47770923,-26.08379925,0.417827188,-2.128809266,FDI,,,,,,
12,32,44,98,0,152,179,0,-1,137,0,0,0,73,76,98,80,24,242.04,49,41,14,-917,31.78623067,43.70099886,26.21215924,51.61067433,-15.03475178,-22.53259576,1.150033162,1.480812348,FDI,,,,,,
12,32,44,98,0,152,179,0,0,137,0,0,0,73,76,98,80,24,242.04,50,46,-1,-1016,31.97858601,43.89134441,26.80165478,52.73178371,-17.94932325,-24.93032366,-1.282090526,-0.884567893,FDI,,,,,,
12,31,52,99,1,151,-179,0,0,137,0,0,0,73,76,100,90,24,241.97,51,-5,19,-1042,31.04481939,51.24884582,27.61336961,51.76446026,-19.42424123,-17.33434657,-2.159593218,7.057347017,FDI,,,,,,
12,32,47,103,0,152,-178,0,0,137,0,0,0,73,76,98,80,24,242.01,51,28,13,-979,31.83839647,47.44137044,27.91313512,54.06096307,-17.15166279,-33.03801865,0.377732353,-7.819816981,FDI,,,,,,
12,32,49,100,0,152,177,1,-1,137,0,0,0,73,76,98,80,23,242.05,52,17,14,-1049,31.92154878,48.76675164,28.47437943,54.47624145,-18.25793209,-26.16166237,-0.660580848,0.42571505,FDI,,,,,,
12,32,49,100,0,152,177,0,0,137,0,0,0,73,76,99,80,23,241.99,53,23,11,-1021,31.91857872,48.89844379,29.0217222,55.44263416,-18.44240306,-27.94955234,-0.642527652,-1.221755071,FDI,,,,,,
12,31,49,101,0,152,179,0,0,137,0,0,0,73,76,100,80,23,242.12,53,16,16,-1009,30.9904524,48.88786504,29.82389171,56.3852275,-19.46617647,-28.24656587,-1.545746584,-1.126858453,FDI,,,,,,
12,32,50,102,0,152,178,0,0,137,0,0,0,73,75,100,90,23,242,54,16,18,-975,31.80339053,49.78916024,30.12014914,57.06569996,-17.13478377,-27.28243724,0.776706041,0.075995472,FDI,,,,,,
12,32,51,103,0,152,179,0,0,137,0,0,0,73,75,100,80,23,242.02,55,22,-9,-951,31.90019592,50.79655974,30.67958883,57.73501805,-18.24111577,-27.61077957,-0.416661468,-0.035937214,FDI,,,,,,
12,32,51,103,0,152,179,0,0,137,0,0,0,73,75,99,80,22,241.96,55,33,-12,-1024,31.90568679,50.88907645,31.22588577,58.63558655,-18.43126158,-29.15835912,-0.495175731,-1.218096859,FDI,,,,,,
12,31,52,101,-1,152,178,1,-1,137,0,0,0,74,76,99,80,22,242.04,56,-6,2,-1030,30.98268352,51.79567023,32.02743063,59.25969384,-19.45931573,-28.40653855,-1.456937595,-0.093456624,FDI,,,,,,
12,32,51,103,0,152,-179,1,-1,137,0,0,0,74,76,101,80,22,241.96,57,-7,-1,-1008,31.79871037,50.96004328,32.32331244,60.38512897,-17.1306295,-30.76585942,0.830208545,-2.160620633,FDI,,,,,,
