timestamp_p,height,x_speed,y_speed,z_speed,pitch,roll,yaw,temperature,distance,barometer,flight_time,battery,mp_distance_x,mp_distance_y,mp_distance_z,class,,,,,,,,,,,,,,,,,,,,,
27674.61548,60,2,0,0,-2,-1,0,67,81,14438,27,77,-43,25,79,Replay,,,,,,,,,,,,,,,,,,,,,
27675.14112,60,2,0,0,-1,-1,0,67,81,14438,28,77,-43,-9,81,Replay,,,,,,,,,,,,,,,,,,,,,
27675.68571,60,1,-1,0,-1,-1,0,67,81,14432,29,77,-33,2,81,Replay,,,,,,,,,,,,,,,,,,,,,
27676.20432,60,0,0,0,0,0,0,67,81,14441,29,77,-28,4,80,Replay,,,,,,,,,,,,,,,,,,,,,
27676.72003,60,2,0,0,-2,-1,0,67,81,14444,30,77,-24,1,81,Replay,,,,,,,,,,,,,,,,,,,,,
27677.24308,60,1,0,0,-1,0,0,67,80,14440,30,77,-12,-1,83,Replay,,,,,,,,,,,,,,,,,,,,,
27677.76568,60,1,0,0,0,0,0,67,80,14446,31,77,-6,-3,82,Replay,,,,,,,,,,,,,,,,,,,,,
27678.29128,60,0,0,0,0,0,0,67,78,14444,31,77,-2,-7,81,Replay,,,,,,,,,,,,,,,,,,,,,
27678.81341,60,0,0,0,-1,0,0,67,79,14444,32,77,-3,-8,81,Replay,,,,,,,,,,,,,,,,,,,,,
27679.32205,60,0,0,0,-1,0,0,67,80,14443,32,77,-4,-12,81,Replay,,,,,,,,,,,,,,,,,,,,,
27679.85064,60,4,0,0,-4,0,0,67,82,14444,33,77,-1,-17,82,Replay,,,,,,,,,,,,,,,,,,,,,
27680.39261,70,2,0,0,-1,0,0,67,83,14450,33,77,14,-20,83,Replay,,,,,,,,,,,,,,,,,,,,,
27680.89926,70,2,0,0,-1,0,0,67,83,14449,34,77,26,-25,83,Replay,,,,,,,,,,,,,,,,,,,,,
27681.41987,60,2,0,0,-2,-1,0,67,82,14443,34,77,30,-28,83,Replay,,,,,,,,,,,,,,,,,,,,,
27681.94349,60,2,0,0,-2,0,0,67,83,14444,35,77,-8,-46,88,Replay,,,,,,,,,,,,,,,,,,,,,
27682.47008,70,2,0,0,-1,-1,0,66,83,14443,35,77,-46,-1,82,Replay,,,,,,,,,,,,,,,,,,,,,
27682.99568,70,1,0,0,3,0,0,66,82,14447,36,77,-34,0,85,Replay,,,,,,,,,,,,,,,,,,,,,
27683.51866,60,1,0,0,-7,-1,0,67,82,14452,36,77,-28,-5,85,Replay,,,,,,,,,,,,,,,,,,,,,
27684.04992,60,2,0,0,-1,0,0,68,80,14447,37,77,-24,-11,83,Replay,,,,,,,,,,,,,,,,,,,,,
27684.56867,60,1,0,0,0,0,0,68,79,14447,37,77,-11,-13,82,Replay,,,,,,,,,,,,,,,,,,,,,
27685.11526,60,1,-1,0,0,0,0,67,78,14447,38,77,-3,-10,80,Replay,,,,,,,,,,,,,,,,,,,,,
27685.6331,60,0,0,0,-1,0,0,67,77,14441,38,77,-1,-7,80,Replay,,,,,,,,,,,,,,,,,,,,,
27686.18662,60,0,0,0,-1,0,1,66,79,14450,39,77,-1,-5,81,Replay,,,,,,,,,,,,,,,,,,,,,
27686.71322,60,0,0,0,-1,0,31,66,79,14451,40,77,-3,-5,81,Replay,,,,,,,,,,,,,,,,,,,,,
27687.22485,60,0,0,0,0,-1,69,66,79,14452,40,77,-5,-6,82,Replay,,,,,,,,,,,,,,,,,,,,,
27687.76739,60,0,0,0,0,0,100,66,79,14444,41,77,-2,-15,81,Replay,,,,,,,,,,,,,,,,,,,,,
27688.29384,60,0,0,0,1,0,129,67,78,14452,41,77,-7,-21,79,Replay,,,,,,,,,,,,,,,,,,,,,
27688.81994,60,0,0,0,0,0,159,67,78,14453,42,77,-6,-22,79,Replay,,,,,,,,,,,,,,,,,,,,,
27689.34447,60,0,0,0,0,0,174,67,79,14453,42,77,-7,-23,81,Replay,,,,,,,,,,,,,,,,,,,,,
27689.87497,60,0,0,0,0,0,176,67,80,14455,42,77,-7,-23,81,Replay,,,,,,,,,,,,,,,,,,,,,
27690.39505,60,0,0,0,0,0,176,67,80,14455,42,77,-7,-23,81,Replay,,,,,,,,,,,,,,,,,,,,,
27690.91716,60,0,0,0,0,0,176,67,80,14455,42,77,-7,-23,81,Replay,,,,,,,,,,,,,,,,,,,,,
27691.44226,60,0,0,0,0,0,178,67,79,14447,44,76,-6,-12,81,Replay,,,,,,,,,,,,,,,,,,,,,
27691.96836,60,0,0,0,0,0,178,67,78,14462,45,76,-5,-9,81,Replay,,,,,,,,,,,,,,,,,,,,,
27692.5114,60,0,0,0,0,0,178,67,78,14447,45,76,-6,-8,81,Replay,,,,,,,,,,,,,,,,,,,,,
27693.05465,60,0,0,0,0,0,178,67,78,14463,46,76,-2,-6,80,Replay,,,,,,,,,,,,,,,,,,,,,
27693.58724,60,0,0,0,0,0,-170,67,78,14452,46,76,-3,-7,80,Replay,,,,,,,,,,,,,,,,,,,,,
27694.11486,60,0,0,0,0,0,-140,67,77,14454,47,76,-3,-5,80,Replay,,,,,,,,,,,,,,,,,,,,,
27694.6249,60,0,0,0,0,0,-105,66,77,14459,47,76,-4,-6,79,Replay,,,,,,,,,,,,,,,,,,,,,
27695.15149,60,0,0,0,0,0,-76,66,77,14457,48,76,-5,-3,80,Replay,,,,,,,,,,,,,,,,,,,,,
27695.67061,60,0,0,0,0,0,-47,66,79,14459,48,76,-7,0,81,Replay,,,,,,,,,,,,,,,,,,,,,
27696.19122,60,0,0,0,0,0,-18,67,79,14462,49,76,-2,-1,82,Replay,,,,,,,,,,,,,,,,,,,,,
27696.74477,60,0,0,0,0,0,-4,67,78,14456,50,76,-4,0,81,Replay,,,,,,,,,,,,,,,,,,,,,
27697.26438,60,0,0,0,0,0,-3,67,78,14455,50,76,-1,0,81,Replay,,,,,,,,,,,,,,,,,,,,,
27697.79002,60,0,0,0,0,0,-3,67,78,14452,51,76,0,-3,80,Replay,,,,,,,,,,,,,,,,,,,,,
27698.32432,60,0,0,0,-9,0,-3,68,79,14454,51,76,0,-4,80,Replay,,,,,,,,,,,,,,,,,,,,,
27698.84493,60,3,0,0,0,0,-3,68,78,14457,52,75,23,-18,74,Replay,,,,,,,,,,,,,,,,,,,,,
27699.38249,60,2,0,0,-1,0,-3,67,78,14454,52,75,40,-15,74,Replay,,,,,,,,,,,,,,,,,,,,,
27699.90365,60,2,0,0,-1,0,-3,67,78,14454,53,75,44,-19,79,Replay,,,,,,,,,,,,,,,,,,,,,
27700.42702,60,2,0,0,0,0,-3,67,78,14452,53,75,51,-31,70,Replay,,,,,,,,,,,,,,,,,,,,,
27700.95112,60,0,-1,0,1,2,-3,67,77,14461,54,75,51,-31,70,Replay,,,,,,,,,,,,,,,,,,,,,
27701.48569,60,-1,0,0,8,-3,-3,67,79,14456,54,75,51,-31,70,Replay,,,,,,,,,,,,,,,,,,,,,
27702.00504,60,-4,-1,0,1,-1,-3,67,79,14458,55,75,51,-31,70,Replay,,,,,,,,,,,,,,,,,,,,,
27702.52465,60,-4,-1,0,0,0,-3,67,80,14461,55,75,51,-31,70,Replay,,,,,,,,,,,,,,,,,,,,,
27703.05134,60,-2,0,0,-1,0,-3,67,81,14463,56,75,24,7,83,Replay,,,,,,,,,,,,,,,,,,,,,
27703.57621,60,-1,0,0,0,0,-3,67,81,14453,56,74,7,9,83,Replay,,,,,,,,,,,,,,,,,,,,,
27704.09981,60,0,0,0,-1,0,-3,67,80,14463,57,74,3,13,81,Replay,,,,,,,,,,,,,,,,,,,,,
27704.62193,60,0,0,0,0,0,-3,67,79,14462,57,74,3,4,82,Replay,,,,,,,,,,,,,,,,,,,,,
27705.14204,60,0,0,0,0,0,-3,67,79,14455,58,74,3,2,81,Replay,,,,,,,,,,,,,,,,,,,,,
27705.66464,60,2,0,0,-8,0,-3,68,80,14457,58,74,3,2,81,Replay,,,,,,,,,,,,,,,,,,,,,
27706.18425,60,2,0,0,0,0,-3,68,79,14459,59,74,31,-6,79,Replay,,,,,,,,,,,,,,,,,,,,,
27706.73481,60,2,0,0,-1,0,-3,68,77,14458,60,74,50,-9,76,Replay,,,,,,,,,,,,,,,,,,,,,
27707.25442,60,2,0,0,0,0,-3,68,78,14456,60,74,50,-9,76,Replay,,,,,,,,,,,,,,,,,,,,,
27707.77632,60,2,0,0,0,0,-3,68,78,14456,60,74,50,-9,76,Replay,,,,,,,,,,,,,,,,,,,,,
27708.29494,60,0,0,0,0,0,-3,67,76,14463,61,74,50,-9,76,Replay,,,,,,,,,,,,,,,,,,,,,
27708.8111,60,0,0,0,8,0,-3,67,78,14463,61,74,50,-9,76,Replay,,,,,,,,,,,,,,,,,,,,,
27709.34877,60,-4,0,0,1,0,-3,68,78,14459,62,74,50,-9,76,Replay,,,,,,,,,,,,,,,,,,,,,
27709.89165,60,-3,0,0,-1,0,-3,68,78,14461,63,74,33,-4,78,Replay,,,,,,,,,,,,,,,,,,,,,
27710.40977,60,-1,0,0,-1,-1,-3,68,78,14466,63,74,33,-4,78,Replay,,,,,,,,,,,,,,,,,,,,,
27710.93424,60,0,0,0,-1,0,-3,68,80,14469,64,73,33,-4,78,Replay,,,,,,,,,,,,,,,,,,,,,
27711.48556,60,0,0,0,0,0,-3,67,79,14466,64,73,-1,0,82,Replay,,,,,,,,,,,,,,,,,,,,,
27712.04093,60,2,0,0,-8,0,-3,67,81,14463,65,73,1,0,82,Replay,,,,,,,,,,,,,,,,,,,,,
27712.56736,60,4,0,0,0,0,-3,67,80,14459,65,73,5,-1,83,Replay,,,,,,,,,,,,,,,,,,,,,
27713.08482,60,2,0,0,0,0,-3,67,80,14463,66,73,32,-8,80,Replay,,,,,,,,,,,,,,,,,,,,,
27713.62538,60,2,0,0,0,0,-3,67,80,14466,66,73,37,-11,79,Replay,,,,,,,,,,,,,,,,,,,,,
27714.14499,60,2,0,0,0,0,-3,67,80,14466,66,73,37,-11,79,Replay,,,,,,,,,,,,,,,,,,,,,
27714.66559,60,0,0,0,2,1,-3,67,80,14462,67,73,65,-32,45,Replay,,,,,,,,,,,,,,,,,,,,,
27715.1879,60,0,0,0,2,-1,-3,67,81,14455,68,73,65,-32,45,Replay,,,,,,,,,,,,,,,,,,,,,
27715.70851,60,-4,-1,0,2,0,-3,68,81,14466,69,73,65,-32,45,Replay,,,,,,,,,,,,,,,,,,,,,
27716.22976,60,-4,-1,0,1,0,-3,68,81,14462,69,73,36,-27,79,Replay,,,,,,,,,,,,,,,,,,,,,
27716.75536,60,-3,0,0,-1,1,-3,68,81,14459,70,73,10,20,83,Replay,,,,,,,,,,,,,,,,,,,,,
27717.2763,60,-1,0,0,-1,0,-3,68,81,14469,70,73,-4,24,81,Replay,,,,,,,,,,,,,,,,,,,,,
27717.81064,60,0,1,0,0,0,-3,67,79,14460,71,72,-10,22,79,Replay,,,,,,,,,,,,,,,,,,,,,
27718.37513,60,0,0,0,0,0,-3,68,79,14468,71,72,-3,12,80,Replay,,,,,,,,,,,,,,,,,,,,,
27718.90472,60,0,0,0,0,0,12,68,79,14463,72,72,0,3,82,Replay,,,,,,,,,,,,,,,,,,,,,
27719.44302,60,0,0,0,0,0,47,67,79,14466,72,72,0,6,82,Replay,,,,,,,,,,,,,,,,,,,,,
27719.96962,60,0,0,0,0,0,82,67,79,14471,73,72,0,9,81,Replay,,,,,,,,,,,,,,,,,,,,,
27720.48973,60,0,0,0,0,0,113,68,79,14472,73,72,2,7,81,Replay,,,,,,,,,,,,,,,,,,,,,
27721.0265,60,0,0,0,0,0,144,68,79,14463,74,72,0,7,80,Replay,,,,,,,,,,,,,,,,,,,,,
27721.5511,60,0,0,0,0,0,168,68,80,14465,74,72,4,2,82,Replay,,,,,,,,,,,,,,,,,,,,,
27722.13006,60,0,0,0,0,0,175,68,80,14469,75,72,0,2,82,Replay,,,,,,,,,,,,,,,,,,,,,
27722.64991,60,0,0,0,0,0,174,67,79,14466,76,72,-200,-200,-200,Replay,,,,,,,,,,,,,,,,,,,,,
27723.19745,60,0,0,3,0,0,174,67,72,14452,76,72,-200,-200,-200,Replay,,,,,,,,,,,,,,,,,,,,,
27723.73202,30,0,0,4,0,0,174,67,43,14437,77,72,-200,-200,-200,Replay,,,,,,,,,,,,,,,,,,,,,
27724.28055,10,0,0,4,0,0,174,67,21,14397,77,72,-200,-200,-200,Replay,,,,,,,,,,,,,,,,,,,,,
27724.81512,0,0,0,2,0,0,174,67,10,13997,78,71,-200,-200,-200,Replay,,,,,,,,,,,,,,,,,,,,,
27725.33144,0,0,0,0,0,1,167,67,10,14246,78,71,-200,-200,-200,Replay,,,,,,,,,,,,,,,,,,,,,
28114.66118,80,0,0,0,0,-2,0,65,82,14480,7,66,-15,-6,84,Replay,,,,,,,,,,,,,,,,,,,,,
28115.18478,80,0,0,0,0,-1,0,64,81,14484,8,66,-14,-7,83,Replay,,,,,,,,,,,,,,,,,,,,,
28115.69445,80,0,0,0,0,0,0,64,80,14477,8,66,-14,-6,83,Replay,,,,,,,,,,,,,,,,,,,,,
28116.20485,80,0,0,0,-2,0,0,64,81,14481,9,66,-14,-5,83,Replay,,,,,,,,,,,,,,,,,,,,,
28116.72945,80,1,0,0,0,0,0,64,81,14483,9,66,-13,-4,83,Replay,,,,,,,,,,,,,,,,,,,,,
28117.25307,80,1,0,0,0,-2,0,64,82,14481,10,66,-10,-5,84,Replay,,,,,,,,,,,,,,,,,,,,,
28117.78133,80,0,0,0,2,0,0,64,81,14477,10,66,-6,-3,84,Replay,,,,,,,,,,,,,,,,,,,,,
28118.30657,80,0,0,0,0,-1,0,64,81,14474,11,66,-8,-4,84,Replay,,,,,,,,,,,,,,,,,,,,,
28118.82419,80,0,0,0,-1,0,0,64,82,14485,11,66,-11,-11,84,Replay,,,,,,,,,,,,,,,,,,,,,
28119.34479,80,0,0,0,-1,0,0,64,82,14476,12,66,-18,-14,83,Replay,,,,,,,,,,,,,,,,,,,,,
28119.87524,80,0,0,0,-1,-1,0,65,82,14475,12,66,-22,-17,82,Replay,,,,,,,,,,,,,,,,,,,,,
28120.39986,80,4,0,0,-3,0,0,65,81,14484,13,66,-17,-24,80,Replay,,,,,,,,,,,,,,,,,,,,,
28120.92799,80,2,0,0,-1,-1,0,65,81,14472,13,66,-2,-21,85,Replay,,,,,,,,,,,,,,,,,,,,,
28121.45407,80,2,0,0,-2,-1,0,65,81,14472,14,66,7,-30,84,Replay,,,,,,,,,,,,,,,,,,,,,
28121.97471,80,2,0,0,-2,-1,0,65,82,14472,14,66,24,-40,78,Replay,,,,,,,,,,,,,,,,,,,,,
28122.51423,80,2,0,0,-2,-1,0,65,82,14469,15,66,22,-25,92,Replay,,,,,,,,,,,,,,,,,,,,,
28123.04289,80,2,0,0,-2,-1,0,65,82,14474,16,66,37,-31,86,Replay,,,,,,,,,,,,,,,,,,,,,
28123.55153,80,2,-1,0,-1,-1,0,65,82,14472,16,66,52,-25,83,Replay,,,,,,,,,,,,,,,,,,,,,
28124.08761,80,1,0,0,3,0,0,65,81,14471,17,66,42,16,79,Replay,,,,,,,,,,,,,,,,,,,,,
28124.62566,80,0,0,0,-1,0,0,65,82,14475,17,66,39,13,82,Replay,,,,,,,,,,,,,,,,,,,,,
28125.15524,80,3,-1,0,-1,0,0,64,82,14475,18,66,36,14,82,Replay,,,,,,,,,,,,,,,,,,,,,
28125.66447,80,2,-1,0,0,0,0,64,81,14471,18,66,22,15,81,Replay,,,,,,,,,,,,,,,,,,,,,
28126.19201,80,1,0,0,0,0,0,65,80,14478,19,66,8,11,83,Replay,,,,,,,,,,,,,,,,,,,,,
28126.74253,80,0,-1,0,0,0,0,65,79,14471,19,66,1,7,82,Replay,,,,,,,,,,,,,,,,,,,,,
28127.2671,80,0,0,0,0,1,0,65,79,14477,20,66,2,5,82,Replay,,,,,,,,,,,,,,,,,,,,,
28127.78831,80,0,0,0,0,0,0,65,79,14482,20,66,1,7,82,Replay,,,,,,,,,,,,,,,,,,,,,
28128.3049,80,0,0,0,0,0,0,65,80,14490,21,66,3,13,82,Replay,,,,,,,,,,,,,,,,,,,,,
28128.81501,80,4,0,0,-1,0,0,65,81,14480,21,66,-1,15,83,Replay,,,,,,,,,,,,,,,,,,,,,
28129.33749,80,2,0,0,-1,-1,0,65,81,14479,22,66,-29,27,78,Replay,,,,,,,,,,,,,,,,,,,,,
28129.8561,80,2,0,0,-1,-1,0,65,81,14483,22,66,-38,42,74,Replay,,,,,,,,,,,,,,,,,,,,,
28130.3807,80,2,0,0,-1,-1,0,65,80,14482,23,66,-43,-19,79,Replay,,,,,,,,,,,,,,,,,,,,,
28130.90529,80,2,-1,0,-1,-1,0,65,80,14481,23,66,-31,-5,80,Replay,,,,,,,,,,,,,,,,,,,,,
28131.42992,80,1,-1,0,2,-2,0,65,79,14478,24,66,-19,-5,81,Replay,,,,,,,,,,,,,,,,,,,,,
28131.95151,80,0,0,0,0,0,0,65,79,14479,24,66,-12,-1,81,Replay,,,,,,,,,,,,,,,,,,,,,
28132.48024,80,1,0,0,0,0,0,65,80,14482,25,66,-7,-4,82,Replay,,,,,,,,,,,,,,,,,,,,,
28133.00484,80,0,0,0,0,-1,0,65,80,14481,26,66,-3,-7,82,Replay,,,,,,,,,,,,,,,,,,,,,
28133.52943,80,0,0,0,0,-1,0,65,81,14481,26,66,-2,-6,83,Replay,,,,,,,,,,,,,,,,,,,,,
28134.05409,80,0,0,0,0,1,0,65,81,14486,27,66,-2,-5,83,Replay,,,,,,,,,,,,,,,,,,,,,
28134.60761,80,0,0,0,0,0,0,65,81,14482,27,66,-2,-6,83,Replay,,,,,,,,,,,,,,,,,,,,,
28135.13072,80,0,0,0,0,0,0,65,82,14491,28,66,-1,-9,84,Replay,,,,,,,,,,,,,,,,,,,,,
28135.6613,80,4,0,0,-2,0,0,65,82,14488,28,66,6,-13,85,Replay,,,,,,,,,,,,,,,,,,,,,
28136.18988,80,2,0,0,-1,0,0,66,82,14487,29,66,20,-25,82,Replay,,,,,,,,,,,,,,,,,,,,,
28136.74152,80,2,0,0,-1,-1,0,66,82,14484,29,66,35,-25,86,Replay,,,,,,,,,,,,,,,,,,,,,
28137.26483,80,2,0,0,-1,-1,0,65,82,14483,30,66,-52,0,80,Replay,,,,,,,,,,,,,,,,,,,,,
28137.78644,80,1,-1,0,-1,-1,0,65,83,14484,30,66,-28,-7,88,Replay,,,,,,,,,,,,,,,,,,,,,
28138.32058,80,0,0,0,-1,0,0,66,84,14485,31,66,-19,-12,87,Replay,,,,,,,,,,,,,,,,,,,,,
28138.8425,80,1,-1,0,0,0,0,66,83,14479,31,66,-17,-12,86,Replay,,,,,,,,,,,,,,,,,,,,,
28139.3671,80,0,-1,0,-1,-1,0,66,81,14483,32,66,-7,-9,85,Replay,,,,,,,,,,,,,,,,,,,,,
28139.90667,80,0,-1,0,0,0,0,66,80,14484,32,66,-4,-6,83,Replay,,,,,,,,,,,,,,,,,,,,,
28140.46306,80,0,0,0,0,1,0,65,79,14479,33,66,-3,-3,82,Replay,,,,,,,,,,,,,,,,,,,,,
28140.98566,80,0,0,0,0,0,25,65,80,14484,34,66,-2,-2,83,Replay,,,,,,,,,,,,,,,,,,,,,
28141.5123,80,0,0,0,0,-1,55,65,80,14485,34,66,-1,-7,83,Replay,,,,,,,,,,,,,,,,,,,,,
28142.03478,80,0,0,0,0,0,83,66,80,14482,35,66,-1,-11,83,Replay,,,,,,,,,,,,,,,,,,,,,
28142.53843,80,0,0,0,0,0,107,66,80,14481,35,66,-1,-14,83,Replay,,,,,,,,,,,,,,,,,,,,,
28143.06448,80,0,0,0,0,0,141,66,80,14483,36,66,-9,-27,78,Replay,,,,,,,,,,,,,,,,,,,,,
28143.58473,80,0,0,0,0,0,172,66,80,14484,36,66,-1,-23,82,Replay,,,,,,,,,,,,,,,,,,,,,
28144.10933,80,0,0,0,0,0,178,66,80,14479,37,66,-8,-22,83,Replay,,,,,,,,,,,,,,,,,,,,,
28144.6267,80,0,0,0,0,0,178,66,81,14485,37,66,-10,-18,84,Replay,,,,,,,,,,,,,,,,,,,,,
28145.15485,80,0,0,0,0,0,178,65,81,14487,38,66,-9,-15,84,Replay,,,,,,,,,,,,,,,,,,,,,
28145.67246,80,-2,0,0,-8,0,178,65,82,14479,38,65,-12,-9,84,Replay,,,,,,,,,,,,,,,,,,,,,
28146.19924,80,-4,0,0,-2,0,178,65,81,14481,38,65,-15,-9,84,Replay,,,,,,,,,,,,,,,,,,,,,
28146.74149,80,-2,0,0,0,0,178,66,80,14480,39,65,-51,2,77,Replay,,,,,,,,,,,,,,,,,,,,,
28147.27008,80,-2,0,0,0,0,178,66,80,14480,39,65,-51,2,77,Replay,,,,,,,,,,,,,,,,,,,,,
28147.78827,80,-2,0,0,0,0,178,66,80,14474,40,65,9,-23,80,Replay,,,,,,,,,,,,,,,,,,,,,
28148.32135,80,0,0,0,0,0,178,66,79,14483,41,65,5,-14,80,Replay,,,,,,,,,,,,,,,,,,,,,
28148.84396,80,0,-1,0,0,0,178,66,80,14485,41,65,0,-7,82,Replay,,,,,,,,,,,,,,,,,,,,,
28149.36457,80,0,0,0,0,0,178,66,80,14482,42,65,-3,-5,81,Replay,,,,,,,,,,,,,,,,,,,,,
28149.88728,80,0,0,0,0,0,178,66,80,14486,42,65,-5,-4,81,Replay,,,,,,,,,,,,,,,,,,,,,
28150.41238,80,0,0,0,0,0,178,66,81,14484,43,65,-5,1,83,Replay,,,,,,,,,,,,,,,,,,,,,
28150.95393,80,-4,0,0,1,0,178,66,81,14472,44,64,-16,4,82,Replay,,,,,,,,,,,,,,,,,,,,,
28151.48146,80,-2,0,0,-1,0,177,66,81,14482,44,64,-33,17,80,Replay,,,,,,,,,,,,,,,,,,,,,
28152.00557,80,-2,0,0,-1,0,177,66,81,14479,45,64,-42,20,80,Replay,,,,,,,,,,,,,,,,,,,,,
28152.53016,80,-2,0,0,0,0,178,66,82,14482,45,64,-37,3,80,Replay,,,,,,,,,,,,,,,,,,,,,
28153.06573,80,-1,1,0,0,-1,178,65,81,14481,46,64,-17,3,83,Replay,,,,,,,,,,,,,,,,,,,,,
28153.59431,80,0,0,0,0,0,178,65,81,14482,46,64,-10,5,83,Replay,,,,,,,,,,,,,,,,,,,,,
28154.11842,80,-1,0,0,0,0,178,67,80,14477,47,64,-7,0,83,Replay,,,,,,,,,,,,,,,,,,,,,
28154.63651,80,0,0,0,0,0,178,67,80,14475,47,64,-4,0,83,Replay,,,,,,,,,,,,,,,,,,,,,
28155.15612,80,0,0,0,0,0,177,66,81,14484,48,64,-5,-5,83,Replay,,,,,,,,,,,,,,,,,,,,,
28155.67473,80,0,0,0,-8,0,177,66,83,14480,48,64,-4,-7,84,Replay,,,,,,,,,,,,,,,,,,,,,
28156.20058,80,-3,0,0,1,0,178,66,82,14483,49,64,8,-12,84,Replay,,,,,,,,,,,,,,,,,,,,,
28156.72618,80,-2,0,0,0,0,178,66,81,14482,49,63,31,-23,78,Replay,,,,,,,,,,,,,,,,,,,,,
28157.25039,80,-2,0,0,0,-1,178,66,81,14482,50,63,39,-27,78,Replay,,,,,,,,,,,,,,,,,,,,,
28157.76972,80,-2,0,0,0,-1,178,66,80,14474,50,63,57,-34,67,Replay,,,,,,,,,,,,,,,,,,,,,
28158.32324,80,-1,1,0,0,-1,178,66,80,14481,51,63,40,19,82,Replay,,,,,,,,,,,,,,,,,,,,,
28158.8454,80,0,0,0,0,3,178,66,79,14476,51,63,25,11,81,Replay,,,,,,,,,,,,,,,,,,,,,
28159.36573,80,0,0,0,-3,-1,178,67,81,14475,52,63,28,11,80,Replay,,,,,,,,,,,,,,,,,,,,,
28159.88136,80,-2,1,0,0,0,178,67,81,14485,52,63,23,12,82,Replay,,,,,,,,,,,,,,,,,,,,,
28160.40496,80,-1,0,0,0,0,178,67,79,14478,53,63,7,9,82,Replay,,,,,,,,,,,,,,,,,,,,,
28160.92708,80,-1,0,0,0,0,178,67,79,14478,53,63,7,9,82,Replay,,,,,,,,,,,,,,,,,,,,,
28161.44619,80,0,0,0,0,0,178,66,79,14482,54,63,1,5,82,Replay,,,,,,,,,,,,,,,,,,,,,
28161.96632,80,0,0,0,0,0,-170,66,79,14481,55,63,1,3,83,Replay,,,,,,,,,,,,,,,,,,,,,
28162.49231,80,0,0,0,0,-1,-139,66,81,14474,55,63,9,4,83,Replay,,,,,,,,,,,,,,,,,,,,,
28163.01492,80,0,0,0,0,0,-108,66,81,14484,56,62,6,11,84,Replay,,,,,,,,,,,,,,,,,,,,,
28163.53427,80,0,0,0,0,0,-71,66,81,14487,56,62,6,14,83,Replay,,,,,,,,,,,,,,,,,,,,,
28164.04989,80,0,0,0,0,0,-40,66,81,14476,57,62,10,7,85,Replay,,,,,,,,,,,,,,,,,,,,,
28164.574,80,0,0,0,0,0,-13,66,81,14482,57,62,8,16,84,Replay,,,,,,,,,,,,,,,,,,,,,
28165.09763,80,0,0,0,0,0,-5,66,82,14488,58,62,10,17,84,Replay,,,,,,,,,,,,,,,,,,,,,
28165.6302,80,0,0,0,0,0,-3,66,82,14477,58,62,11,16,85,Replay,,,,,,,,,,,,,,,,,,,,,
28166.16976,80,0,0,0,0,0,-3,66,81,14499,59,62,-200,-200,-200,Replay,,,,,,,,,,,,,,,,,,,,,
28166.72039,80,0,0,0,0,0,-3,66,81,14486,59,62,-200,-200,-200,Replay,,,,,,,,,,,,,,,,,,,,,
28167.24399,80,0,0,0,0,0,-3,66,80,14486,60,62,-200,-200,-200,Replay,,,,,,,,,,,,,,,,,,,,,
28167.7661,80,0,0,0,0,0,-3,66,79,14485,60,62,-200,-200,-200,Replay,,,,,,,,,,,,,,,,,,,,,
28168.2889,80,0,0,0,0,0,-3,66,79,14482,61,62,-200,-200,-200,Replay,,,,,,,,,,,,,,,,,,,,,
28168.83743,80,0,0,0,0,0,-3,66,81,14483,61,62,-200,-200,-200,Replay,,,,,,,,,,,,,,,,,,,,,
28169.3606,80,0,0,0,0,0,-3,67,82,14488,62,62,-200,-200,-200,Replay,,,,,,,,,,,,,,,,,,,,,
28169.89738,80,0,0,0,0,0,-3,67,81,14479,62,61,-200,-200,-200,Replay,,,,,,,,,,,,,,,,,,,,,
28170.43979,80,0,0,0,0,0,-3,66,81,14485,63,61,-200,-200,-200,Replay,,,,,,,,,,,,,,,,,,,,,
28170.96338,80,0,0,0,0,0,-3,66,80,14483,64,61,-200,-200,-200,Replay,,,,,,,,,,,,,,,,,,,,,
28171.48473,80,0,0,0,0,-1,-3,66,79,14483,64,61,-200,-200,-200,Replay,,,,,,,,,,,,,,,,,,,,,
28172.00477,80,0,0,0,0,0,-3,66,78,14477,65,61,-200,-200,-200,Replay,,,,,,,,,,,,,,,,,,,,,
28172.55131,80,0,0,0,0,-1,-3,66,78,14484,65,61,-200,-200,-200,Replay,,,,,,,,,,,,,,,,,,,,,
28173.08404,80,0,0,0,0,0,-3,66,78,14476,66,61,-200,-200,-200,Replay,,,,,,,,,,,,,,,,,,,,,
28173.61731,80,0,0,0,0,0,-3,65,78,14484,66,61,-200,-200,-200,Replay,,,,,,,,,,,,,,,,,,,,,
28174.16384,70,0,0,3,0,0,-3,65,72,14472,67,61,-200,-200,-200,Replay,,,,,,,,,,,,,,,,,,,,,
28174.68545,50,0,0,4,0,0,-3,66,49,14452,67,60,-200,-200,-200,Replay,,,,,,,,,,,,,,,,,,,,,
28175.24496,20,0,0,4,0,0,-3,66,19,14419,68,60,-200,-200,-200,Replay,,,,,,,,,,,,,,,,,,,,,
28175.76658,0,0,0,2,-1,0,-3,66,10,14069,68,60,-200,-200,-200,Replay,,,,,,,,,,,,,,,,,,,,,
28176.28421,0,0,-1,0,0,0,-3,66,10,14268,69,60,-200,-200,-200,Replay,,,,,,,,,,,,,,,,,,,,,
44950.17525,70,0,0,0,0,0,0,64,86,17812,2,59,4,9,89,Replay,,,,,,,,,,,,,,,,,,,,,
44950.69434,70,0,0,0,-1,0,0,64,85,17818,3,59,5,9,88,Replay,,,,,,,,,,,,,,,,,,,,,
44951.221,70,0,0,0,0,0,0,64,84,17815,3,59,5,8,87,Replay,,,,,,,,,,,,,,,,,,,,,
44951.7481,70,0,0,0,0,0,0,64,82,17812,4,59,4,9,85,Replay,,,,,,,,,,,,,,,,,,,,,
44952.26571,70,0,0,0,0,0,0,65,80,17817,4,59,5,11,83,Replay,,,,,,,,,,,,,,,,,,,,,
44952.79082,60,0,0,0,0,0,0,65,79,17821,5,59,7,10,82,Replay,,,,,,,,,,,,,,,,,,,,,
44953.30196,60,0,0,0,0,0,0,64,79,17812,5,59,6,14,81,Replay,,,,,,,,,,,,,,,,,,,,,
44953.81669,60,0,0,0,-1,-2,0,64,80,17817,6,59,7,13,81,Replay,,,,,,,,,,,,,,,,,,,,,
44954.34729,60,0,0,0,0,-2,0,65,80,17814,7,59,5,7,83,Replay,,,,,,,,,,,,,,,,,,,,,
44954.86643,60,0,0,0,0,-1,0,65,79,17820,7,59,4,5,82,Replay,,,,,,,,,,,,,,,,,,,,,
44955.39205,60,0,0,0,0,1,0,65,80,17810,8,59,4,4,82,Replay,,,,,,,,,,,,,,,,,,,,,
44955.90942,60,0,0,0,0,-1,0,65,80,17810,8,59,5,7,82,Replay,,,,,,,,,,,,,,,,,,,,,
44956.41296,60,0,0,0,-1,-1,0,65,80,17816,9,59,8,13,82,Replay,,,,,,,,,,,,,,,,,,,,,
44956.93112,60,0,0,0,0,-1,0,65,80,17813,9,59,10,17,81,Replay,,,,,,,,,,,,,,,,,,,,,
44957.4464,60,0,0,0,0,-1,0,65,80,17813,10,59,12,20,82,Replay,,,,,,,,,,,,,,,,,,,,,
44957.97299,60,0,0,0,-8,0,0,65,81,17811,10,59,10,21,82,Replay,,,,,,,,,,,,,,,,,,,,,
44958.50081,60,3,0,0,0,-1,0,65,80,17808,11,59,-2,22,84,Replay,,,,,,,,,,,,,,,,,,,,,
44959.01842,60,2,0,0,-1,-1,0,65,81,17812,11,59,-21,14,87,Replay,,,,,,,,,,,,,,,,,,,,,
44959.56998,70,2,0,0,-1,-1,0,65,82,17816,12,59,-21,14,87,Replay,,,,,,,,,,,,,,,,,,,,,
44960.10094,70,2,-1,0,0,-2,0,65,83,17805,12,59,36,21,85,Replay,,,,,,,,,,,,,,,,,,,,,
44960.63255,70,1,-1,0,0,-2,0,65,83,17810,13,59,25,25,84,Replay,,,,,,,,,,,,,,,,,,,,,
44961.16315,70,0,-2,0,0,3,0,65,82,17815,13,59,13,20,83,Replay,,,,,,,,,,,,,,,,,,,,,
44961.68074,70,0,0,0,0,0,0,65,82,17818,14,59,10,17,84,Replay,,,,,,,,,,,,,,,,,,,,,
44962.21105,70,0,0,0,0,-1,0,65,82,17818,14,59,8,29,83,Replay,,,,,,,,,,,,,,,,,,,,,
44962.73915,70,0,0,0,-8,0,0,65,83,17819,15,59,3,33,83,Replay,,,,,,,,,,,,,,,,,,,,,
44963.24747,70,4,0,0,1,-1,0,65,82,17816,15,59,-8,22,90,Replay,,,,,,,,,,,,,,,,,,,,,
44963.77808,70,2,0,0,0,-1,0,66,82,17815,16,59,-8,22,90,Replay,,,,,,,,,,,,,,,,,,,,,
44964.30468,70,2,0,0,0,-2,0,66,80,17811,16,59,-8,22,90,Replay,,,,,,,,,,,,,,,,,,,,,
44964.80734,60,1,-1,0,0,-2,0,65,78,17809,17,59,-8,22,90,Replay,,,,,,,,,,,,,,,,,,,,,
44965.33791,60,0,-2,0,0,-1,0,66,78,17813,18,59,-8,22,90,Replay,,,,,,,,,,,,,,,,,,,,,
44965.86416,60,0,0,0,0,2,0,66,78,17809,18,59,-1,-37,76,Replay,,,,,,,,,,,,,,,,,,,,,
44966.395,60,0,0,0,-2,-4,0,66,79,17813,19,59,3,-34,78,Replay,,,,,,,,,,,,,,,,,,,,,
44966.91561,60,0,-2,0,0,-4,0,66,80,17808,19,59,3,-34,78,Replay,,,,,,,,,,,,,,,,,,,,,
44967.43435,70,0,-2,0,0,-1,0,65,81,17816,20,59,6,-34,80,Replay,,,,,,,,,,,,,,,,,,,,,
44967.95104,70,0,-2,0,0,-1,0,65,82,17813,20,59,5,-25,82,Replay,,,,,,,,,,,,,,,,,,,,,
44968.49509,70,0,-1,0,0,-1,0,66,82,17810,21,59,7,-19,82,Replay,,,,,,,,,,,,,,,,,,,,,
44969.02169,60,0,-1,0,0,-1,0,66,81,17815,21,59,6,-21,81,Replay,,,,,,,,,,,,,,,,,,,,,
44969.55097,60,0,-1,0,0,-1,0,66,81,17816,22,59,7,-17,81,Replay,,,,,,,,,,,,,,,,,,,,,
44970.06709,60,0,-1,0,0,-1,0,66,80,17813,22,59,6,-12,82,Replay,,,,,,,,,,,,,,,,,,,,,
44970.59767,60,0,-1,0,0,-1,0,65,80,17815,23,59,6,-13,81,Replay,,,,,,,,,,,,,,,,,,,,,
44971.11831,60,0,-1,0,0,-1,0,65,80,17813,23,59,6,-12,81,Replay,,,,,,,,,,,,,,,,,,,,,
44971.64642,60,0,-1,0,-1,-1,0,66,81,17807,24,59,6,-11,82,Replay,,,,,,,,,,,,,,,,,,,,,
44972.16403,60,0,-1,0,0,-1,0,66,80,17816,24,59,5,-10,82,Replay,,,,,,,,,,,,,,,,,,,,,
44972.68168,60,0,-1,0,1,-1,0,66,80,17818,25,59,4,-9,81,Replay,,,,,,,,,,,,,,,,,,,,,
44973.19535,60,0,-1,0,-1,-1,0,66,80,17815,25,59,4,-7,81,Replay,,,,,,,,,,,,,,,,,,,,,
44973.72393,60,0,0,0,-2,-3,0,66,80,17816,26,59,2,-8,81,Replay,,,,,,,,,,,,,,,,,,,,,
44974.25447,60,0,0,0,2,0,0,66,79,17814,26,59,2,-8,81,Replay,,,,,,,,,,,,,,,,,,,,,
44974.80586,60,0,0,0,0,0,0,66,80,17812,27,59,4,-10,80,Replay,,,,,,,,,,,,,,,,,,,,,
44975.32449,60,0,0,0,0,-1,0,66,80,17811,28,59,5,-11,81,Replay,,,,,,,,,,,,,,,,,,,,,
44975.84218,60,2,0,0,-8,0,0,66,80,17819,28,59,5,-21,80,Replay,,,,,,,,,,,,,,,,,,,,,
44976.37327,60,3,0,0,0,0,0,66,78,17822,29,59,23,-30,77,Replay,,,,,,,,,,,,,,,,,,,,,
44976.89558,60,2,0,0,0,-1,0,67,78,17819,29,59,-39,-22,80,Replay,,,,,,,,,,,,,,,,,,,,,
44977.41571,60,2,0,0,0,-1,0,67,77,17814,30,59,-19,-19,87,Replay,,,,,,,,,,,,,,,,,,,,,
44977.94423,60,1,-1,0,0,-2,0,66,78,17815,30,59,-19,-19,87,Replay,,,,,,,,,,,,,,,,,,,,,
44978.47581,60,0,-2,0,0,-1,0,66,78,17806,31,59,23,-31,75,Replay,,,,,,,,,,,,,,,,,,,,,
44979.00646,60,0,0,0,0,0,0,66,77,17812,31,59,25,-31,72,Replay,,,,,,,,,,,,,,,,,,,,,
44979.52267,60,-2,-2,0,0,-2,0,66,79,17820,32,59,15,-17,83,Replay,,,,,,,,,,,,,,,,,,,,,
44980.05425,60,-1,-2,0,0,0,0,66,80,17813,32,59,2,-19,81,Replay,,,,,,,,,,,,,,,,,,,,,
44980.58432,60,0,-1,0,0,0,0,66,80,17819,33,59,0,-11,82,Replay,,,,,,,,,,,,,,,,,,,,,
44981.10392,60,0,-1,0,0,-1,0,66,80,17816,33,59,-2,-9,82,Replay,,,,,,,,,,,,,,,,,,,,,
44981.63825,60,0,-1,0,0,-1,0,66,80,17821,34,59,-1,-5,83,Replay,,,,,,,,,,,,,,,,,,,,,
44982.15836,60,0,0,0,0,-1,0,66,80,17822,34,59,-1,-4,83,Replay,,,,,,,,,,,,,,,,,,,,,
44982.67545,60,0,0,0,0,0,18,66,81,17821,35,59,1,-6,84,Replay,,,,,,,,,,,,,,,,,,,,,
44983.18946,60,0,0,0,0,0,42,66,81,17818,35,59,2,-9,84,Replay,,,,,,,,,,,,,,,,,,,,,
44983.71004,60,0,0,0,0,0,72,67,81,17812,36,59,1,-11,84,Replay,,,,,,,,,,,,,,,,,,,,,
44984.22674,60,0,0,0,0,0,109,67,81,17817,36,59,8,-18,82,Replay,,,,,,,,,,,,,,,,,,,,,
44984.75703,60,0,0,0,0,0,139,67,82,17816,37,59,5,-22,83,Replay,,,,,,,,,,,,,,,,,,,,,
44985.27516,60,0,0,0,0,0,167,67,82,17822,37,59,2,-26,82,Replay,,,,,,,,,,,,,,,,,,,,,
44985.78779,70,0,0,0,0,0,178,66,83,17822,38,59,-4,-21,84,Replay,,,,,,,,,,,,,,,,,,,,,
44986.30464,60,0,0,0,0,0,178,66,82,17822,38,59,-4,-19,84,Replay,,,,,,,,,,,,,,,,,,,,,
44986.81928,60,0,0,0,0,0,178,66,82,17817,39,59,-6,-14,84,Replay,,,,,,,,,,,,,,,,,,,,,
44987.32144,60,0,0,0,-8,0,178,66,84,17817,39,59,-5,-14,84,Replay,,,,,,,,,,,,,,,,,,,,,
44987.83658,60,-4,0,0,1,0,178,67,82,17818,40,59,-22,-10,84,Replay,,,,,,,,,,,,,,,,,,,,,
44988.36367,70,-2,0,0,-1,0,178,67,82,17811,41,59,-38,-2,85,Replay,,,,,,,,,,,,,,,,,,,,,
44988.88345,60,-2,0,0,-1,-1,178,66,81,17809,41,59,7,-33,77,Replay,,,,,,,,,,,,,,,,,,,,,
44989.39456,60,-2,0,0,-1,0,178,66,80,17815,42,59,4,-12,82,Replay,,,,,,,,,,,,,,,,,,,,,
44989.92466,60,-1,0,0,2,-4,178,67,81,17813,42,59,-2,-7,82,Replay,,,,,,,,,,,,,,,,,,,,,
44990.45331,60,0,0,0,0,0,178,67,81,17817,43,59,-5,-7,83,Replay,,,,,,,,,,,,,,,,,,,,,
44991.02996,70,0,0,0,-2,-1,178,67,82,17823,43,59,-13,-5,82,Replay,,,,,,,,,,,,,,,,,,,,,
44991.54735,70,0,0,0,0,0,178,67,82,17819,44,59,-14,0,82,Replay,,,,,,,,,,,,,,,,,,,,,
44992.06002,70,0,0,0,0,0,178,67,82,17831,44,59,-7,2,84,Replay,,,,,,,,,,,,,,,,,,,,,
44992.57963,70,0,3,0,0,-8,178,67,84,17815,45,59,-9,4,83,Replay,,,,,,,,,,,,,,,,,,,,,
44993.11416,70,0,8,0,0,-6,178,67,83,17815,45,59,-5,-16,85,Replay,,,,,,,,,,,,,,,,,,,,,
44993.63162,70,0,9,0,0,-4,178,67,83,17821,46,59,-3,-32,84,Replay,,,,,,,,,,,,,,,,,,,,,
44994.16718,70,0,9,0,0,-4,178,67,83,17819,46,59,-3,-32,84,Replay,,,,,,,,,,,,,,,,,,,,,
44994.69543,70,0,9,0,0,-4,178,67,82,17822,47,59,-3,-32,84,Replay,,,,,,,,,,,,,,,,,,,,,
44995.28828,60,0,9,0,0,-4,178,67,80,17822,47,58,-3,-32,84,Replay,,,,,,,,,,,,,,,,,,,,,
44995.8194,60,0,9,0,0,-4,178,67,81,17822,48,58,-3,-32,84,Replay,,,,,,,,,,,,,,,,,,,,,
44996.33674,70,0,9,0,0,-4,178,67,82,17823,49,58,-3,-32,84,Replay,,,,,,,,,,,,,,,,,,,,,
44996.85494,70,0,9,0,-1,-4,178,67,83,17815,49,58,-3,-32,84,Replay,,,,,,,,,,,,,,,,,,,,,
44997.3795,70,0,9,0,0,-4,178,67,84,17819,50,58,-3,-32,84,Replay,,,,,,,,,,,,,,,,,,,,,
44997.91111,70,0,6,0,1,5,178,67,83,17812,50,58,-100,-100,-100,Replay,,,,,,,,,,,,,,,,,,,,,
44998.42857,70,0,2,0,0,0,178,67,83,17815,51,57,-100,-100,-100,Replay,,,,,,,,,,,,,,,,,,,,,
44998.95915,70,1,1,0,0,-1,178,67,83,17822,51,57,-100,-100,-100,Replay,,,,,,,,,,,,,,,,,,,,,
44999.48911,70,0,0,0,0,0,178,67,84,17823,52,57,-100,-100,-100,Replay,,,,,,,,,,,,,,,,,,,,,
45000.01732,70,0,0,0,0,-1,178,67,83,17821,52,57,-100,-100,-100,Replay,,,,,,,,,,,,,,,,,,,,,
45000.53397,70,0,0,0,0,-1,178,67,83,17827,53,57,-100,-100,-100,Replay,,,,,,,,,,,,,,,,,,,,,
45001.06963,60,0,0,0,0,-1,178,67,82,17817,53,57,-100,-100,-100,Replay,,,,,,,,,,,,,,,,,,,,,
45001.59975,60,0,0,0,0,-1,178,67,82,17814,54,57,-100,-100,-100,Replay,,,,,,,,,,,,,,,,,,,,,
45002.11637,60,0,0,0,0,-1,178,67,81,17812,54,57,-100,-100,-100,Replay,,,,,,,,,,,,,,,,,,,,,
45002.6445,60,0,0,0,0,-1,178,67,79,17815,55,57,-100,-100,-100,Replay,,,,,,,,,,,,,,,,,,,,,
45003.21532,60,0,0,0,0,-1,178,67,77,17815,55,57,-100,-100,-100,Replay,,,,,,,,,,,,,,,,,,,,,
45003.74989,60,0,0,0,0,-1,178,67,76,17815,56,57,-100,-100,-100,Replay,,,,,,,,,,,,,,,,,,,,,
45004.25218,60,0,0,0,0,-1,178,67,77,17817,56,57,-100,-100,-100,Replay,,,,,,,,,,,,,,,,,,,,,
45004.80138,60,0,0,0,0,-1,178,67,78,17814,57,57,-100,-100,-100,Replay,,,,,,,,,,,,,,,,,,,,,
45005.30309,60,0,0,0,0,-1,178,67,79,17812,58,57,-100,-100,-100,Replay,,,,,,,,,,,,,,,,,,,,,
45005.82227,60,0,0,0,0,-1,178,67,79,17821,58,57,-100,-100,-100,Replay,,,,,,,,,,,,,,,,,,,,,
45006.34922,60,0,0,0,0,-1,178,67,78,17818,59,57,-100,-100,-100,Replay,,,,,,,,,,,,,,,,,,,,,
45162.89835,80,0,0,0,0,0,0,69,84,17838,7,45,-7,7,86,Replay,,,,,,,,,,,,,,,,,,,,,
45163.41499,80,0,0,0,-1,0,0,69,84,17840,7,45,-7,8,86,Replay,,,,,,,,,,,,,,,,,,,,,
45163.94328,80,0,0,0,-1,-1,0,69,84,17844,8,45,-6,11,86,Replay,,,,,,,,,,,,,,,,,,,,,
45164.47262,80,0,0,0,-1,-1,0,70,83,17846,8,45,-5,14,85,Replay,,,,,,,,,,,,,,,,,,,,,
45165.0032,80,0,0,0,0,-1,0,69,83,17846,9,45,-5,19,84,Replay,,,,,,,,,,,,,,,,,,,,,
45165.53481,80,0,0,0,0,-1,0,69,82,17843,9,45,-8,17,85,Replay,,,,,,,,,,,,,,,,,,,,,
45166.07635,80,0,0,0,0,-1,0,69,83,17845,10,45,-11,17,85,Replay,,,,,,,,,,,,,,,,,,,,,
45166.59115,80,0,-1,0,0,-2,0,69,82,17842,10,45,-13,19,84,Replay,,,,,,,,,,,,,,,,,,,,,
45167.10795,70,0,-1,0,0,-1,0,69,81,17834,11,45,-9,17,83,Replay,,,,,,,,,,,,,,,,,,,,,
45167.63801,70,0,-1,0,0,-1,0,69,80,17845,11,45,-8,11,83,Replay,,,,,,,,,,,,,,,,,,,,,
45168.1664,70,0,-1,0,0,0,0,69,81,17845,12,45,-6,11,82,Replay,,,,,,,,,,,,,,,,,,,,,
45168.72591,70,0,-1,0,0,-1,0,69,81,17839,13,45,-6,9,83,Replay,,,,,,,,,,,,,,,,,,,,,
45169.25592,70,0,-1,0,0,0,0,69,81,17844,13,45,-7,7,83,Replay,,,,,,,,,,,,,,,,,,,,,
45169.77839,70,0,-1,0,2,-1,0,69,81,17843,14,45,-7,7,83,Replay,,,,,,,,,,,,,,,,,,,,,
45170.30432,70,0,-1,0,0,-1,0,68,81,17843,14,45,-8,6,83,Replay,,,,,,,,,,,,,,,,,,,,,
45170.82343,70,-1,0,0,0,0,0,68,82,17852,15,45,-6,7,84,Replay,,,,,,,,,,,,,,,,,,,,,
45171.35108,70,-1,0,0,1,1,0,69,81,17838,15,45,-5,5,84,Replay,,,,,,,,,,,,,,,,,,,,,
45171.87741,70,0,0,0,0,0,0,69,83,17847,16,45,-5,9,84,Replay,,,,,,,,,,,,,,,,,,,,,
45172.40351,80,0,0,0,0,-1,0,69,83,17844,16,45,-7,13,85,Replay,,,,,,,,,,,,,,,,,,,,,
45172.93218,80,0,0,0,0,0,0,69,83,17844,17,45,-13,15,86,Replay,,,,,,,,,,,,,,,,,,,,,
45173.45136,80,0,0,0,0,-1,0,69,83,17843,17,45,-14,22,85,Replay,,,,,,,,,,,,,,,,,,,,,
45173.97843,80,2,0,0,-8,0,0,69,84,17849,18,45,-17,25,86,Replay,,,,,,,,,,,,,,,,,,,,,
45174.50438,80,3,0,0,0,0,0,69,82,17853,18,45,70,-3,65,Replay,,,,,,,,,,,,,,,,,,,,,
45175.06247,70,2,0,0,0,-1,0,69,81,17846,19,45,31,24,84,Replay,,,,,,,,,,,,,,,,,,,,,
45175.59145,70,2,0,0,0,-2,0,69,81,17830,19,45,20,29,83,Replay,,,,,,,,,,,,,,,,,,,,,
45176.12032,70,1,-1,0,2,-2,0,69,82,17845,20,45,-18,30,81,Replay,,,,,,,,,,,,,,,,,,,,,
45176.63236,80,0,-2,0,0,2,0,69,83,17845,21,45,-16,32,81,Replay,,,,,,,,,,,,,,,,,,,,,
45177.16099,80,0,0,0,0,0,0,69,84,17854,21,45,-21,30,80,Replay,,,,,,,,,,,,,,,,,,,,,
45177.67598,80,-1,-2,0,0,-2,0,69,84,17847,22,45,-19,32,81,Replay,,,,,,,,,,,,,,,,,,,,,
45178.19099,80,-1,-2,0,0,0,0,69,83,17845,22,45,-10,21,83,Replay,,,,,,,,,,,,,,,,,,,,,
45178.71939,70,0,-1,0,0,-1,0,69,81,17846,23,45,-6,16,83,Replay,,,,,,,,,,,,,,,,,,,,,
45179.24786,70,0,-1,0,0,-1,0,69,81,17836,23,45,-5,13,82,Replay,,,,,,,,,,,,,,,,,,,,,
45179.77592,70,0,-1,0,0,-2,0,69,80,17838,24,45,-3,12,82,Replay,,,,,,,,,,,,,,,,,,,,,
45180.3079,70,0,-1,0,0,-1,0,69,80,17849,24,45,-3,11,82,Replay,,,,,,,,,,,,,,,,,,,,,
45180.82425,70,0,-1,0,-1,-1,0,69,79,17841,25,45,-2,8,81,Replay,,,,,,,,,,,,,,,,,,,,,
45181.35485,70,0,-1,0,0,-1,0,69,79,17843,25,45,-3,7,80,Replay,,,,,,,,,,,,,,,,,,,,,
45181.88893,70,0,0,0,0,0,0,69,78,17839,26,45,-3,7,80,Replay,,,,,,,,,,,,,,,,,,,,,
45182.40623,70,0,0,0,0,0,0,69,80,17845,26,45,-6,10,81,Replay,,,,,,,,,,,,,,,,,,,,,
45182.92682,70,0,0,0,-5,0,0,69,81,17848,27,45,-7,12,81,Replay,,,,,,,,,,,,,,,,,,,,,
45183.4564,70,4,0,0,1,0,0,69,80,17840,27,45,-15,16,82,Replay,,,,,,,,,,,,,,,,,,,,,
45183.9752,70,2,0,0,-1,-1,0,69,79,17841,28,45,-38,25,79,Replay,,,,,,,,,,,,,,,,,,,,,
45184.50402,70,2,0,0,0,-1,0,69,79,17838,28,45,-28,-29,78,Replay,,,,,,,,,,,,,,,,,,,,,
45185.05557,70,2,-1,0,0,-2,0,69,80,17841,29,45,-6,-30,79,Replay,,,,,,,,,,,,,,,,,,,,,
45185.61557,70,0,-2,0,1,-2,0,69,81,17835,29,45,4,-27,80,Replay,,,,,,,,,,,,,,,,,,,,,
45186.1337,70,0,0,0,0,0,0,69,82,17852,30,45,5,-15,84,Replay,,,,,,,,,,,,,,,,,,,,,
45186.65929,70,0,-1,0,0,-1,0,69,82,17853,31,45,-4,-36,74,Replay,,,,,,,,,,,,,,,,,,,,,
45187.17541,70,0,-1,0,-1,-1,0,69,80,17839,31,45,5,-18,82,Replay,,,,,,,,,,,,,,,,,,,,,
45187.69505,70,0,-1,0,0,-1,0,69,78,17839,32,45,3,-16,80,Replay,,,,,,,,,,,,,,,,,,,,,
45188.21617,70,0,-1,0,0,-1,0,69,78,17849,32,45,3,-12,79,Replay,,,,,,,,,,,,,,,,,,,,,
45188.74528,70,0,-1,0,1,0,0,69,78,17844,33,45,4,-11,79,Replay,,,,,,,,,,,,,,,,,,,,,
45189.27537,70,0,0,0,0,1,0,68,79,17845,33,45,4,-8,79,Replay,,,,,,,,,,,,,,,,,,,,,
45189.80447,70,0,0,0,0,0,0,68,78,17848,34,45,5,-12,79,Replay,,,,,,,,,,,,,,,,,,,,,
45190.3191,70,0,0,0,0,-1,0,69,77,17849,34,45,7,-17,78,Replay,,,,,,,,,,,,,,,,,,,,,
45190.83423,70,4,0,0,-3,0,0,69,78,17843,35,45,13,-25,78,Replay,,,,,,,,,,,,,,,,,,,,,
45191.34811,70,2,0,0,0,0,0,68,79,17848,35,45,29,-32,79,Replay,,,,,,,,,,,,,,,,,,,,,
45191.84979,70,2,0,0,0,-1,0,68,81,17849,36,45,-23,-16,91,Replay,,,,,,,,,,,,,,,,,,,,,
45192.36105,70,2,0,0,-1,-1,0,69,80,17849,36,45,-23,-16,91,Replay,,,,,,,,,,,,,,,,,,,,,
45192.90611,70,2,-1,0,0,-1,0,69,81,17849,37,45,-23,-16,91,Replay,,,,,,,,,,,,,,,,,,,,,
45193.43571,70,0,-1,0,1,3,0,68,80,17848,37,45,13,-28,79,Replay,,,,,,,,,,,,,,,,,,,,,
45193.94837,70,0,0,0,0,-8,0,68,81,17851,38,45,13,-31,78,Replay,,,,,,,,,,,,,,,,,,,,,
45194.47694,70,0,-6,0,0,-7,0,69,80,17848,38,45,13,-21,78,Replay,,,,,,,,,,,,,,,,,,,,,
45195.02554,70,0,-9,0,0,-4,0,69,81,17852,39,45,3,31,82,Replay,,,,,,,,,,,,,,,,,,,,,
45195.55213,70,0,-9,0,0,-4,0,69,82,17853,39,45,3,31,82,Replay,,,,,,,,,,,,,,,,,,,,,
45196.0693,70,0,-9,0,0,-4,0,69,81,17856,40,45,3,31,82,Replay,,,,,,,,,,,,,,,,,,,,,
45196.60067,50,-3,0,21,-42,168,128,68,489,17797,40,45,3,31,82,Replay,,,,,,,,,,,,,,,,,,,,,
45480.42819,60,0,0,0,-1,-1,0,70,82,17898,9,36,14,22,82,Replay,,,,,,,,,,,,,,,,,,,,,
45480.94381,60,0,0,0,-1,0,0,70,81,17887,9,36,14,21,82,Replay,,,,,,,,,,,,,,,,,,,,,
45481.45742,60,0,0,0,-1,0,0,70,82,17890,10,36,14,21,82,Replay,,,,,,,,,,,,,,,,,,,,,
45481.98937,60,0,-1,0,-2,-4,0,70,83,17895,10,36,15,20,85,Replay,,,,,,,,,,,,,,,,,,,,,
45482.5006,60,1,-1,0,0,0,0,69,83,17892,11,36,8,16,84,Replay,,,,,,,,,,,,,,,,,,,,,
45483.01971,60,0,-1,0,-1,0,0,69,82,17889,11,36,4,5,85,Replay,,,,,,,,,,,,,,,,,,,,,
45483.54748,60,0,0,0,0,0,0,70,82,17901,12,36,1,5,84,Replay,,,,,,,,,,,,,,,,,,,,,
45484.06609,60,0,0,0,0,0,0,70,81,17897,12,36,2,5,84,Replay,,,,,,,,,,,,,,,,,,,,,
45484.59142,60,0,0,0,-1,0,0,69,83,17895,13,36,8,8,85,Replay,,,,,,,,,,,,,,,,,,,,,
45485.1196,60,0,0,0,-1,0,0,69,84,17892,13,36,10,12,86,Replay,,,,,,,,,,,,,,,,,,,,,
45485.67847,60,0,0,0,-1,0,0,70,84,17895,14,36,14,17,85,Replay,,,,,,,,,,,,,,,,,,,,,
45486.20734,60,0,0,0,0,0,0,70,84,17896,15,36,15,15,85,Replay,,,,,,,,,,,,,,,,,,,,,
45486.7378,60,0,0,0,0,0,0,70,84,17893,15,36,14,19,84,Replay,,,,,,,,,,,,,,,,,,,,,
45487.2557,60,3,0,0,-8,0,0,70,84,17897,16,36,15,17,84,Replay,,,,,,,,,,,,,,,,,,,,,
45487.8152,60,3,0,0,0,0,0,70,83,17893,16,36,-7,11,86,Replay,,,,,,,,,,,,,,,,,,,,,
45488.37545,60,2,0,0,-1,-1,0,69,84,17886,17,36,-23,24,84,Replay,,,,,,,,,,,,,,,,,,,,,
45488.8874,60,2,0,0,-1,-1,0,69,83,17899,17,36,-36,16,86,Replay,,,,,,,,,,,,,,,,,,,,,
45489.40402,60,2,0,0,-1,-1,0,70,83,17891,18,36,-38,23,86,Replay,,,,,,,,,,,,,,,,,,,,,
45489.9295,60,1,-1,0,-1,-2,0,70,83,17892,18,36,38,8,82,Replay,,,,,,,,,,,,,,,,,,,,,
45490.45968,60,0,-1,0,1,3,0,70,82,17891,19,36,29,5,82,Replay,,,,,,,,,,,,,,,,,,,,,
45490.97692,60,0,0,0,-2,0,0,70,83,17892,19,36,33,11,77,Replay,,,,,,,,,,,,,,,,,,,,,
45491.50455,60,2,0,0,0,-1,0,69,82,17898,20,36,25,9,82,Replay,,,,,,,,,,,,,,,,,,,,,
45492.01552,60,1,0,0,0,-1,0,69,81,17893,20,36,7,10,83,Replay,,,,,,,,,,,,,,,,,,,,,
45492.54444,60,1,0,0,0,-1,0,69,80,17887,21,36,2,9,82,Replay,,,,,,,,,,,,,,,,,,,,,
45493.07549,60,0,0,0,0,-1,0,69,80,17892,21,36,0,8,82,Replay,,,,,,,,,,,,,,,,,,,,,
45493.63414,60,0,0,0,0,0,0,69,81,17895,22,36,2,7,83,Replay,,,,,,,,,,,,,,,,,,,,,
45494.16099,60,0,0,0,0,0,0,69,82,17892,23,36,2,8,84,Replay,,,,,,,,,,,,,,,,,,,,,
45494.6786,60,1,0,0,-8,0,0,70,85,17897,23,36,3,9,85,Replay,,,,,,,,,,,,,,,,,,,,,
45495.20543,60,3,0,0,0,0,0,70,84,17889,24,36,-7,15,85,Replay,,,,,,,,,,,,,,,,,,,,,
45495.70709,60,2,0,0,-1,-1,0,70,83,17894,24,36,-26,23,81,Replay,,,,,,,,,,,,,,,,,,,,,
45496.24072,60,2,0,0,-1,-1,0,70,84,17892,25,36,-41,26,81,Replay,,,,,,,,,,,,,,,,,,,,,
45496.77068,60,2,0,0,-1,-1,0,69,84,17892,25,36,-31,-11,85,Replay,,,,,,,,,,,,,,,,,,,,,
45497.31687,60,1,-1,0,-1,-1,0,69,84,17894,26,36,-20,-15,84,Replay,,,,,,,,,,,,,,,,,,,,,
45497.82452,60,0,0,0,2,2,0,69,82,17894,26,36,-10,-7,84,Replay,,,,,,,,,,,,,,,,,,,,,
45498.35015,60,0,0,0,-3,-3,0,69,82,17896,27,36,-6,-7,83,Replay,,,,,,,,,,,,,,,,,,,,,
45498.86676,60,0,0,0,-1,0,0,69,80,17888,27,36,-7,-7,82,Replay,,,,,,,,,,,,,,,,,,,,,
45499.3816,60,0,0,0,1,0,0,69,80,17895,28,36,-5,-5,81,Replay,,,,,,,,,,,,,,,,,,,,,
45499.91274,60,0,0,0,0,0,0,69,80,17891,28,36,-5,-4,81,Replay,,,,,,,,,,,,,,,,,,,,,
45500.44433,60,0,0,0,-1,-1,0,69,81,17889,29,36,-5,-6,82,Replay,,,,,,,,,,,,,,,,,,,,,
45500.97494,60,0,-1,0,0,-4,0,69,80,17891,29,36,-9,-14,81,Replay,,,,,,,,,,,,,,,,,,,,,
45501.50402,60,0,-2,0,0,-1,0,69,78,17899,30,36,-9,-4,81,Replay,,,,,,,,,,,,,,,,,,,,,
45502.01416,60,0,-2,0,0,-1,0,69,77,17890,30,36,-11,5,79,Replay,,,,,,,,,,,,,,,,,,,,,
45502.54426,60,0,-1,0,0,0,0,69,78,17893,31,36,-16,16,78,Replay,,,,,,,,,,,,,,,,,,,,,
45503.04476,60,0,0,0,-1,0,0,69,78,17895,31,36,-19,19,77,Replay,,,,,,,,,,,,,,,,,,,,,
45503.57538,60,0,2,0,0,2,0,69,79,17897,32,36,-17,8,79,Replay,,,,,,,,,,,,,,,,,,,,,
45504.10396,60,0,2,0,0,0,0,69,79,17895,32,36,-10,-1,81,Replay,,,,,,,,,,,,,,,,,,,,,
45504.61311,60,0,0,0,0,-3,0,69,80,17895,33,36,-11,-20,80,Replay,,,,,,,,,,,,,,,,,,,,,
45505.13175,60,0,-1,0,-3,-6,0,69,81,17893,33,36,-12,-30,80,Replay,,,,,,,,,,,,,,,,,,,,,
45505.64838,60,0,-2,0,-1,-1,0,70,80,17893,34,36,-11,-23,80,Replay,,,,,,,,,,,,,,,,,,,,,
45506.16451,60,0,-1,0,0,0,0,70,79,17898,35,36,-5,-12,80,Replay,,,,,,,,,,,,,,,,,,,,,
45506.67716,60,0,-1,0,0,-1,0,69,78,17893,35,36,-3,-7,79,Replay,,,,,,,,,,,,,,,,,,,,,
45507.20774,60,0,0,0,0,-1,0,69,78,17894,36,36,-2,-5,79,Replay,,,,,,,,,,,,,,,,,,,,,
45507.71791,60,0,0,0,-8,0,0,69,79,17891,36,36,-5,-4,79,Replay,,,,,,,,,,,,,,,,,,,,,
45508.27506,60,3,0,0,0,0,0,69,79,17889,37,36,5,-10,80,Replay,,,,,,,,,,,,,,,,,,,,,
45508.80065,60,2,0,0,-1,-1,0,69,81,17894,37,36,23,-16,79,Replay,,,,,,,,,,,,,,,,,,,,,
45509.30415,60,2,0,0,-1,-1,0,69,80,17886,38,36,34,-19,81,Replay,,,,,,,,,,,,,,,,,,,,,
45509.85021,60,2,0,0,-1,-1,0,70,78,17886,38,36,-22,-12,80,Replay,,,,,,,,,,,,,,,,,,,,,
45510.36688,60,2,-1,0,0,-1,0,70,78,17886,39,36,-7,-6,81,Replay,,,,,,,,,,,,,,,,,,,,,
45510.89498,60,0,0,0,0,0,0,69,79,17897,39,36,-2,-6,81,Replay,,,,,,,,,,,,,,,,,,,,,
45511.4126,60,0,0,0,0,-1,0,69,79,17892,40,36,-4,-4,81,Replay,,,,,,,,,,,,,,,,,,,,,
45511.94169,60,0,0,0,0,0,3,69,78,17888,40,36,-4,-2,81,Replay,,,,,,,,,,,,,,,,,,,,,
45512.47231,60,0,0,0,0,0,38,69,79,17899,41,36,-5,-2,81,Replay,,,,,,,,,,,,,,,,,,,,,
45513.03083,60,0,0,0,0,0,68,69,79,17892,41,36,-3,-3,82,Replay,,,,,,,,,,,,,,,,,,,,,
45513.56192,60,0,0,0,0,0,98,69,79,17896,42,36,-2,-4,82,Replay,,,,,,,,,,,,,,,,,,,,,
45514.09002,60,0,0,0,0,0,140,69,80,17890,43,36,-2,-10,82,Replay,,,,,,,,,,,,,,,,,,,,,
45514.63221,60,0,0,0,0,0,167,70,79,17893,43,36,-4,-13,81,Replay,,,,,,,,,,,,,,,,,,,,,
45515.16336,60,0,0,0,0,0,177,70,78,17889,44,36,-9,-12,80,Replay,,,,,,,,,,,,,,,,,,,,,
45515.70741,60,0,0,0,0,0,178,69,77,17895,44,36,-6,-11,79,Replay,,,,,,,,,,,,,,,,,,,,,
45516.23699,60,0,-3,0,0,8,178,69,76,17892,45,36,-11,-11,77,Replay,,,,,,,,,,,,,,,,,,,,,
45516.75553,60,0,-7,0,0,5,178,70,78,17900,45,36,-8,7,79,Replay,,,,,,,,,,,,,,,,,,,,,
45517.26421,60,0,-9,0,0,4,178,70,78,17895,46,36,-15,21,77,Replay,,,,,,,,,,,,,,,,,,,,,
45517.78283,60,0,-9,0,0,4,178,69,78,17902,46,36,-15,21,77,Replay,,,,,,,,,,,,,,,,,,,,,
45518.30896,50,2,-1,21,32,-66,-165,69,10,17834,46,36,-15,21,77,Replay,,,,,,,,,,,,,,,,,,,,,
16385.31522,80,0,0,0,0,0,0,61,84,19169,7,93,6,6,87,Replay,,,,,,,,,,,,,,,,,,,,,
16385.83494,80,0,0,0,-1,0,0,61,85,19174,7,93,5,7,87,Replay,,,,,,,,,,,,,,,,,,,,,
16386.36499,80,0,0,0,-1,0,0,61,84,19172,8,93,4,10,87,Replay,,,,,,,,,,,,,,,,,,,,,
16386.88261,80,0,0,0,-1,0,0,61,83,19170,8,93,5,9,87,Replay,,,,,,,,,,,,,,,,,,,,,
16387.41194,80,0,0,0,-1,0,0,61,83,19168,9,93,6,10,86,Replay,,,,,,,,,,,,,,,,,,,,,
16387.92853,80,0,0,0,0,0,0,61,83,19171,9,93,5,9,86,Replay,,,,,,,,,,,,,,,,,,,,,
16388.45845,80,0,0,0,0,0,0,60,83,19166,10,93,5,10,86,Replay,,,,,,,,,,,,,,,,,,,,,
16388.97507,80,0,-1,0,-1,-1,0,60,82,19165,10,93,5,10,86,Replay,,,,,,,,,,,,,,,,,,,,,
16389.50676,80,0,0,0,0,0,0,62,81,19161,11,93,4,8,84,Replay,,,,,,,,,,,,,,,,,,,,,
16390.02172,80,0,0,0,0,0,0,62,80,19158,11,93,4,5,84,Replay,,,,,,,,,,,,,,,,,,,,,
16390.55248,80,0,0,0,0,0,0,62,81,19162,12,93,5,6,84,Replay,,,,,,,,,,,,,,,,,,,,,
16391.0685,80,0,0,0,-1,0,0,62,80,19162,12,93,9,12,83,Replay,,,,,,,,,,,,,,,,,,,,,
16391.59938,80,0,0,0,0,0,0,62,81,19169,13,93,11,13,83,Replay,,,,,,,,,,,,,,,,,,,,,
16392.10017,80,0,0,0,-1,0,0,62,81,19166,13,93,13,14,83,Replay,,,,,,,,,,,,,,,,,,,,,
16392.61493,80,0,0,0,-1,0,0,62,81,19163,14,93,16,19,82,Replay,,,,,,,,,,,,,,,,,,,,,
16393.13065,80,0,0,0,0,0,0,62,82,19163,14,93,17,18,83,Replay,,,,,,,,,,,,,,,,,,,,,
16393.66168,80,0,0,0,0,0,0,61,80,19158,15,93,15,19,82,Replay,,,,,,,,,,,,,,,,,,,,,
16394.17939,80,1,0,0,-8,0,0,61,81,19160,15,93,14,19,82,Replay,,,,,,,,,,,,,,,,,,,,,
16394.70929,80,3,0,0,1,0,0,62,80,19165,16,93,1,15,84,Replay,,,,,,,,,,,,,,,,,,,,,
16395.2409,80,2,0,0,-1,0,0,62,82,19159,16,93,-13,18,85,Replay,,,,,,,,,,,,,,,,,,,,,
16395.77119,80,2,0,0,-1,0,0,62,83,19152,17,93,-25,27,84,Replay,,,,,,,,,,,,,,,,,,,,,
16396.28705,80,2,0,0,-1,-1,0,63,83,19156,18,93,-33,25,89,Replay,,,,,,,,,,,,,,,,,,,,,
16396.80418,80,2,0,0,-1,-1,0,63,84,19164,18,93,47,16,83,Replay,,,,,,,,,,,,,,,,,,,,,
16397.33384,80,1,-1,0,-1,-1,0,62,84,19167,19,93,38,12,85,Replay,,,,,,,,,,,,,,,,,,,,,
16397.86491,80,0,0,0,0,2,0,62,83,19164,19,93,30,13,83,Replay,,,,,,,,,,,,,,,,,,,,,
16398.38167,80,0,0,0,-2,-1,0,62,83,19159,20,93,34,14,81,Replay,,,,,,,,,,,,,,,,,,,,,
16398.91139,80,2,-1,0,-1,0,0,62,82,19159,20,93,30,14,82,Replay,,,,,,,,,,,,,,,,,,,,,
16399.42875,80,1,-1,0,0,0,0,63,81,19159,21,93,14,11,82,Replay,,,,,,,,,,,,,,,,,,,,,
16399.9595,80,1,0,0,-1,-1,0,63,81,19162,21,93,8,6,83,Replay,,,,,,,,,,,,,,,,,,,,,
16400.4905,80,0,0,0,-1,0,0,62,81,19165,22,93,5,6,83,Replay,,,,,,,,,,,,,,,,,,,,,
16401.00742,80,0,0,0,0,0,0,62,81,19161,22,93,3,6,83,Replay,,,,,,,,,,,,,,,,,,,,,
16401.53742,80,0,0,0,-3,-1,0,63,82,19157,23,93,3,6,84,Replay,,,,,,,,,,,,,,,,,,,,,
16402.05258,80,0,0,0,0,0,0,63,81,19154,23,93,3,8,83,Replay,,,,,,,,,,,,,,,,,,,,,
16402.56889,80,0,0,0,0,0,0,63,82,19163,24,93,5,9,84,Replay,,,,,,,,,,,,,,,,,,,,,
16403.09987,80,0,0,0,-8,0,0,63,82,19157,24,93,7,11,83,Replay,,,,,,,,,,,,,,,,,,,,,
16403.61664,80,3,0,0,0,0,0,63,81,19157,25,93,-2,15,83,Replay,,,,,,,,,,,,,,,,,,,,,
16404.14636,80,2,0,0,-1,0,0,63,81,19161,25,93,-14,22,81,Replay,,,,,,,,,,,,,,,,,,,,,
16404.70927,80,2,0,0,-1,-1,0,62,81,19153,26,93,-28,26,78,Replay,,,,,,,,,,,,,,,,,,,,,
16405.2263,80,2,0,0,-1,-1,0,62,81,19158,26,93,-36,35,76,Replay,,,,,,,,,,,,,,,,,,,,,
16405.75647,80,2,0,0,-1,-1,0,63,81,19156,27,93,-39,-20,79,Replay,,,,,,,,,,,,,,,,,,,,,
16406.31911,80,2,-1,0,-1,-1,0,63,81,19157,28,93,-25,-17,82,Replay,,,,,,,,,,,,,,,,,,,,,
16406.83505,80,0,0,0,0,0,0,63,80,19161,28,93,-15,-15,82,Replay,,,,,,,,,,,,,,,,,,,,,
16407.33584,80,1,0,0,-4,-3,0,63,81,19156,29,93,-20,-17,81,Replay,,,,,,,,,,,,,,,,,,,,,
16407.86671,80,1,-1,0,-1,-1,0,63,81,19158,29,93,-17,-13,82,Replay,,,,,,,,,,,,,,,,,,,,,
16408.38148,80,1,-1,0,0,0,0,63,81,19156,30,93,-10,-7,83,Replay,,,,,,,,,,,,,,,,,,,,,
16408.91234,80,1,0,0,0,-1,0,63,81,19161,30,93,-5,-6,83,Replay,,,,,,,,,,,,,,,,,,,,,
16409.4441,80,0,0,0,0,0,0,64,80,19158,31,93,-4,-4,83,Replay,,,,,,,,,,,,,,,,,,,,,
16409.97465,70,0,0,0,0,0,0,64,79,19165,31,93,-5,-4,82,Replay,,,,,,,,,,,,,,,,,,,,,
16410.49055,80,0,0,0,-1,0,0,63,81,19159,32,93,-6,-5,83,Replay,,,,,,,,,,,,,,,,,,,,,
16411.0069,80,1,0,0,-8,0,0,63,82,19161,32,92,-8,-9,84,Replay,,,,,,,,,,,,,,,,,,,,,
16411.53848,80,3,0,0,0,-1,0,63,83,19157,33,92,-6,-18,83,Replay,,,,,,,,,,,,,,,,,,,,,
16412.10112,80,2,0,0,-1,-1,0,63,84,19159,33,92,18,-23,83,Replay,,,,,,,,,,,,,,,,,,,,,
16412.61492,80,2,0,0,-1,0,0,63,82,19158,34,92,27,-29,81,Replay,,,,,,,,,,,,,,,,,,,,,
16413.11602,80,2,0,0,-1,0,0,63,81,19158,34,92,36,-26,82,Replay,,,,,,,,,,,,,,,,,,,,,
16413.63096,80,2,0,0,-1,-1,0,63,81,19155,35,92,-25,-14,85,Replay,,,,,,,,,,,,,,,,,,,,,
16414.13189,80,2,-1,0,-1,2,0,63,80,19151,35,92,-12,-14,83,Replay,,,,,,,,,,,,,,,,,,,,,
16414.64682,80,0,0,0,0,0,0,64,80,19152,36,92,-8,-13,83,Replay,,,,,,,,,,,,,,,,,,,,,
16415.16349,80,0,-1,0,-1,-2,0,64,80,19154,36,92,-9,-19,82,Replay,,,,,,,,,,,,,,,,,,,,,
16415.69323,80,0,-1,0,-1,-1,0,64,80,19155,37,92,-11,-16,82,Replay,,,,,,,,,,,,,,,,,,,,,
16416.21104,70,0,-1,0,-1,0,0,64,79,19149,37,91,-5,-9,82,Replay,,,,,,,,,,,,,,,,,,,,,
16416.74197,70,0,-1,0,0,0,0,64,78,19145,38,91,-7,-6,80,Replay,,,,,,,,,,,,,,,,,,,,,
16417.25505,70,0,0,0,-1,0,9,64,78,19147,39,91,-5,-7,80,Replay,,,,,,,,,,,,,,,,,,,,,
16417.77308,70,0,0,0,0,-1,39,63,78,19148,39,91,-7,-9,81,Replay,,,,,,,,,,,,,,,,,,,,,
16418.30308,70,0,0,0,0,-1,75,63,79,19151,40,91,-8,-15,81,Replay,,,,,,,,,,,,,,,,,,,,,
16418.82019,70,0,0,0,0,0,105,64,79,19155,40,91,-7,-18,81,Replay,,,,,,,,,,,,,,,,,,,,,
16419.35125,70,0,0,0,0,0,135,64,79,19152,41,91,-5,-23,81,Replay,,,,,,,,,,,,,,,,,,,,,
16419.86787,70,0,0,0,0,0,164,64,80,19155,41,91,-4,-26,81,Replay,,,,,,,,,,,,,,,,,,,,,
16420.39677,70,0,0,0,0,0,175,64,80,19157,42,91,-7,-26,81,Replay,,,,,,,,,,,,,,,,,,,,,
16420.91202,70,0,0,0,0,0,177,65,80,19158,42,91,-12,-25,81,Replay,,,,,,,,,,,,,,,,,,,,,
16421.4429,70,0,0,0,0,0,177,65,81,19151,43,90,-8,-22,82,Replay,,,,,,,,,,,,,,,,,,,,,
16421.96069,80,0,0,0,-8,0,177,65,82,19149,43,90,-8,-17,83,Replay,,,,,,,,,,,,,,,,,,,,,
16422.47446,80,-3,0,0,1,0,177,65,81,19155,44,90,-20,-18,83,Replay,,,,,,,,,,,,,,,,,,,,,
16423.00528,80,-2,0,0,-1,0,177,65,81,19147,44,90,-48,-9,80,Replay,,,,,,,,,,,,,,,,,,,,,
16423.52151,80,-2,0,0,-1,0,177,65,81,19154,45,90,-62,-8,76,Replay,,,,,,,,,,,,,,,,,,,,,
16424.03838,80,-2,0,0,-1,0,178,65,80,19159,45,90,10,-21,80,Replay,,,,,,,,,,,,,,,,,,,,,
16424.56831,70,-1,0,0,0,-1,178,64,79,19150,46,90,-2,-15,81,Replay,,,,,,,,,,,,,,,,,,,,,
16425.09802,70,0,0,0,0,1,177,64,79,19154,46,90,-10,-16,80,Replay,,,,,,,,,,,,,,,,,,,,,
16425.61464,70,0,0,0,1,3,177,65,80,19153,47,90,-9,-11,81,Replay,,,,,,,,,,,,,,,,,,,,,
16426.12968,70,0,-1,0,-1,0,177,65,80,19154,47,90,-6,-4,81,Replay,,,,,,,,,,,,,,,,,,,,,
16426.6473,70,0,0,0,0,0,177,65,80,19150,48,90,-6,-4,81,Replay,,,,,,,,,,,,,,,,,,,,,
16427.17788,80,0,0,0,0,0,177,65,80,19155,48,90,-10,1,80,Replay,,,,,,,,,,,,,,,,,,,,,
16427.69594,80,-2,0,0,-8,0,177,65,81,19150,49,90,-7,-2,81,Replay,,,,,,,,,,,,,,,,,,,,,
16428.22485,80,-3,0,0,0,0,178,65,80,19155,49,89,-23,16,78,Replay,,,,,,,,,,,,,,,,,,,,,
16428.7416,80,-2,0,0,-1,-1,178,65,80,19154,50,89,-35,18,79,Replay,,,,,,,,,,,,,,,,,,,,,
16429.27274,80,-2,0,0,-1,-1,178,65,80,19149,51,89,-34,-8,83,Replay,,,,,,,,,,,,,,,,,,,,,
16429.80248,80,-2,0,0,-1,-1,178,65,80,19157,51,89,-25,-14,82,Replay,,,,,,,,,,,,,,,,,,,,,
16430.31948,80,-1,1,0,0,-1,178,65,80,19155,52,89,-15,-15,82,Replay,,,,,,,,,,,,,,,,,,,,,
16430.83544,80,0,1,0,0,3,177,64,80,19152,52,89,-3,-6,84,Replay,,,,,,,,,,,,,,,,,,,,,
16431.36548,80,0,0,0,-1,-3,177,64,81,19159,53,89,-4,-8,84,Replay,,,,,,,,,,,,,,,,,,,,,
16431.88221,80,0,1,0,-1,0,177,65,81,19153,53,89,-6,-10,84,Replay,,,,,,,,,,,,,,,,,,,,,
16432.41107,80,0,1,0,-1,-1,177,65,81,19157,54,89,-5,-9,85,Replay,,,,,,,,,,,,,,,,,,,,,
16432.91321,80,0,1,0,-1,0,177,66,81,19157,54,89,-4,-6,84,Replay,,,,,,,,,,,,,,,,,,,,,
16433.44305,70,0,0,0,0,0,177,66,80,19156,55,89,-4,-4,83,Replay,,,,,,,,,,,,,,,,,,,,,
16433.95964,80,0,0,0,-1,0,177,65,81,19156,55,89,-5,-6,84,Replay,,,,,,,,,,,,,,,,,,,,,
16434.49037,80,0,0,0,-7,0,177,65,82,19149,56,88,-8,-13,84,Replay,,,,,,,,,,,,,,,,,,,,,
16435.02023,80,-3,0,0,0,0,177,65,81,19150,56,88,5,-17,83,Replay,,,,,,,,,,,,,,,,,,,,,
16435.5394,80,-2,0,0,-1,0,178,65,80,19153,57,88,18,-22,81,Replay,,,,,,,,,,,,,,,,,,,,,
16436.06898,80,-2,0,0,-1,-1,178,65,79,19141,57,88,31,-29,79,Replay,,,,,,,,,,,,,,,,,,,,,
16436.59998,80,-2,0,0,-1,-1,177,65,78,19142,58,88,-57,6,72,Replay,,,,,,,,,,,,,,,,,,,,,
16437.13172,70,-1,1,0,0,-2,177,65,78,19144,58,88,-33,-13,81,Replay,,,,,,,,,,,,,,,,,,,,,
16437.66345,70,-1,1,0,0,-1,177,65,78,19150,59,88,-33,-18,76,Replay,,,,,,,,,,,,,,,,,,,,,
16438.1943,80,0,1,0,0,2,177,65,79,19154,59,88,-22,-10,81,Replay,,,,,,,,,,,,,,,,,,,,,
16438.72429,80,0,0,0,0,0,178,65,80,19143,60,88,-26,-13,79,Replay,,,,,,,,,,,,,,,,,,,,,
16439.22495,80,-2,0,0,-1,-1,177,65,81,19157,60,88,-26,-16,79,Replay,,,,,,,,,,,,,,,,,,,,,
16439.73991,80,-1,1,0,0,0,177,65,80,19147,61,88,-11,-10,82,Replay,,,,,,,,,,,,,,,,,,,,,
16440.25801,80,0,1,0,0,0,177,65,81,19149,62,88,-4,-8,83,Replay,,,,,,,,,,,,,,,,,,,,,
16440.78686,80,0,0,0,0,-1,178,66,81,19154,62,88,-6,-5,83,Replay,,,,,,,,,,,,,,,,,,,,,
16441.3033,70,0,0,0,0,-1,177,66,80,19158,63,88,-3,-7,83,Replay,,,,,,,,,,,,,,,,,,,,,
16441.83436,80,0,1,0,-2,0,177,66,81,19157,63,88,-7,-5,83,Replay,,,,,,,,,,,,,,,,,,,,,
16442.36546,70,0,0,0,0,-1,-171,66,80,19161,64,87,-6,-4,82,Replay,,,,,,,,,,,,,,,,,,,,,
16442.88174,70,0,0,0,0,-1,-140,66,79,19155,64,87,-4,-8,82,Replay,,,,,,,,,,,,,,,,,,,,,
16443.41271,70,0,0,0,0,-1,-103,66,80,19158,65,87,-9,-12,83,Replay,,,,,,,,,,,,,,,,,,,,,
16443.92734,80,0,0,0,1,0,-73,66,82,19162,65,87,-7,-20,84,Replay,,,,,,,,,,,,,,,,,,,,,
16444.42915,80,0,0,0,1,0,-49,66,83,19160,66,87,-8,-22,85,Replay,,,,,,,,,,,,,,,,,,,,,
16444.94295,80,0,0,0,0,1,-19,66,81,19156,66,87,-8,-25,84,Replay,,,,,,,,,,,,,,,,,,,,,
16445.45893,70,0,0,0,0,1,-6,66,79,19155,67,87,-15,-24,82,Replay,,,,,,,,,,,,,,,,,,,,,
16445.9898,80,0,0,0,0,0,-2,66,81,19155,67,87,-200,-200,-200,Replay,,,,,,,,,,,,,,,,,,,,,
16446.50657,80,0,0,0,0,0,-1,66,80,19153,68,87,-200,-200,-200,Replay,,,,,,,,,,,,,,,,,,,,,
16447.02248,70,0,0,3,0,0,-1,66,71,19150,68,87,-200,-200,-200,Replay,,,,,,,,,,,,,,,,,,,,,
16447.53726,50,0,0,4,0,0,-1,66,49,19127,69,87,-200,-200,-200,Replay,,,,,,,,,,,,,,,,,,,,,
16448.054,20,0,0,4,0,0,-1,65,20,19098,69,86,-200,-200,-200,Replay,,,,,,,,,,,,,,,,,,,,,
16448.58473,0,0,0,2,0,0,-1,65,10,18754,70,86,-200,-200,-200,Replay,,,,,,,,,,,,,,,,,,,,,
16449.10095,10,0,0,-1,0,0,-1,65,10,18989,70,86,-200,-200,-200,Replay,,,,,,,,,,,,,,,,,,,,,
16449.63094,10,0,0,-1,-1,0,-1,65,13,19067,71,86,-200,-200,-200,Replay,,,,,,,,,,,,,,,,,,,,,
16450.16219,20,0,0,-1,-1,0,-1,65,19,19091,71,86,-200,-200,-200,Replay,,,,,,,,,,,,,,,,,,,,,
16450.679,20,0,3,0,0,8,-1,65,22,19108,72,86,-200,-200,-200,Replay,,,,,,,,,,,,,,,,,,,,,
16451.20803,30,0,8,0,-1,5,-1,65,25,19110,73,86,-200,-200,-200,Replay,,,,,,,,,,,,,,,,,,,,,
16451.75572,30,0,9,0,0,4,-1,66,26,19117,73,86,-200,-200,-200,Replay,,,,,,,,,,,,,,,,,,,,,
16452.25654,30,0,9,0,0,4,-1,66,27,19122,73,86,-200,-200,-200,Replay,,,,,,,,,,,,,,,,,,,,,
16452.78843,30,0,9,0,0,5,-1,66,27,19124,74,86,-200,-200,-200,Replay,,,,,,,,,,,,,,,,,,,,,
16453.30304,30,0,9,0,-1,5,-1,66,28,19120,75,86,-200,-200,-200,Replay,,,,,,,,,,,,,,,,,,,,,
16453.81895,30,0,9,0,0,5,-1,65,30,19122,75,86,-200,-200,-200,Replay,,,,,,,,,,,,,,,,,,,,,
16454.31992,30,0,9,0,0,6,-1,65,30,19123,76,86,-200,-200,-200,Replay,,,,,,,,,,,,,,,,,,,,,
16454.83656,30,0,9,0,0,6,-1,65,29,19130,76,86,-200,-200,-200,Replay,,,,,,,,,,,,,,,,,,,,,
16556.08237,70,0,0,0,0,0,0,67,84,19147,11,82,6,15,85,Replay,,,,,,,,,,,,,,,,,,,,,
16556.59799,70,0,0,0,0,0,0,67,83,19147,11,82,5,12,85,Replay,,,,,,,,,,,,,,,,,,,,,
16557.12954,70,0,0,0,0,0,0,68,82,19154,12,82,6,13,84,Replay,,,,,,,,,,,,,,,,,,,,,
16557.63122,70,0,0,0,-1,-2,0,68,83,19144,12,82,6,15,83,Replay,,,,,,,,,,,,,,,,,,,,,
16558.1621,70,0,-1,0,-1,0,0,67,82,19148,13,82,4,10,83,Replay,,,,,,,,,,,,,,,,,,,,,
16558.66276,70,0,-1,0,-2,0,0,67,81,19147,13,82,4,7,83,Replay,,,,,,,,,,,,,,,,,,,,,
16559.19337,70,0,0,0,0,0,0,68,81,19146,14,82,2,5,83,Replay,,,,,,,,,,,,,,,,,,,,,
16559.70999,70,0,0,0,0,0,0,68,82,19150,14,82,5,8,84,Replay,,,,,,,,,,,,,,,,,,,,,
16560.21962,70,0,0,0,0,0,0,67,83,19142,15,82,6,11,84,Replay,,,,,,,,,,,,,,,,,,,,,
16560.73427,70,0,0,0,0,0,0,67,83,19146,15,82,9,15,83,Replay,,,,,,,,,,,,,,,,,,,,,
16561.24987,70,0,0,0,0,0,0,67,83,19149,16,82,9,10,84,Replay,,,,,,,,,,,,,,,,,,,,,
16561.76249,70,0,0,0,0,0,0,67,82,19146,16,82,8,14,83,Replay,,,,,,,,,,,,,,,,,,,,,
16562.28709,70,0,0,0,0,0,0,68,81,19150,17,82,8,15,82,Replay,,,,,,,,,,,,,,,,,,,,,
16562.80374,70,0,0,0,0,0,0,68,82,19154,17,82,7,15,82,Replay,,,,,,,,,,,,,,,,,,,,,
16563.36453,70,1,0,0,-8,0,0,68,83,19146,18,82,10,17,82,Replay,,,,,,,,,,,,,,,,,,,,,
16563.89626,70,3,0,0,1,0,0,68,83,19147,18,82,-2,9,85,Replay,,,,,,,,,,,,,,,,,,,,,
16564.41097,70,2,0,0,-1,-1,0,67,84,19149,19,82,-25,14,84,Replay,,,,,,,,,,,,,,,,,,,,,
16564.91197,70,2,0,0,-1,-1,0,67,85,19141,19,82,-33,22,84,Replay,,,,,,,,,,,,,,,,,,,,,
16565.43932,70,2,0,0,-1,-1,0,67,85,19141,20,82,42,7,83,Replay,,,,,,,,,,,,,,,,,,,,,
16565.94225,70,2,-1,0,-1,-1,0,67,85,19142,21,82,35,5,82,Replay,,,,,,,,,,,,,,,,,,,,,
16566.45887,70,0,0,0,1,0,0,68,84,19144,21,82,18,1,85,Replay,,,,,,,,,,,,,,,,,,,,,
16566.98958,70,0,0,0,-4,0,0,68,84,19144,22,82,21,2,83,Replay,,,,,,,,,,,,,,,,,,,,,
16567.50592,70,1,0,0,0,0,0,68,82,19137,22,82,13,5,83,Replay,,,,,,,,,,,,,,,,,,,,,
16568.02163,70,1,0,0,0,-1,0,68,81,19136,23,82,6,6,82,Replay,,,,,,,,,,,,,,,,,,,,,
16568.53725,70,0,0,0,0,-1,0,67,81,19137,23,82,2,7,81,Replay,,,,,,,,,,,,,,,,,,,,,
16569.08379,70,0,0,0,0,0,0,67,80,19142,24,82,2,7,81,Replay,,,,,,,,,,,,,,,,,,,,,
16569.60146,70,0,0,0,0,0,0,68,81,19144,24,82,2,7,82,Replay,,,,,,,,,,,,,,,,,,,,,
16570.11614,70,0,-1,0,0,-6,0,68,81,19134,25,82,3,10,82,Replay,,,,,,,,,,,,,,,,,,,,,
16570.63082,70,0,-2,0,0,0,0,68,81,19135,25,82,4,5,82,Replay,,,,,,,,,,,,,,,,,,,,,
16571.16079,70,0,-2,0,0,0,0,67,81,19133,26,82,6,-2,82,Replay,,,,,,,,,,,,,,,,,,,,,
16571.69339,70,0,-2,0,0,1,0,67,81,19133,26,82,10,-13,82,Replay,,,,,,,,,,,,,,,,,,,,,
16572.22418,70,0,0,0,0,0,0,67,81,19142,27,82,11,-20,82,Replay,,,,,,,,,,,,,,,,,,,,,
16572.72493,70,0,2,0,0,0,0,67,82,19137,27,82,7,-15,82,Replay,,,,,,,,,,,,,,,,,,,,,
16573.27158,70,0,2,0,0,0,0,67,81,19134,28,82,6,5,82,Replay,,,,,,,,,,,,,,,,,,,,,
16573.78441,70,0,0,0,-1,0,0,67,80,19135,28,82,8,23,81,Replay,,,,,,,,,,,,,,,,,,,,,
16574.29674,70,0,-1,0,-1,-4,0,67,79,19128,29,82,7,28,80,Replay,,,,,,,,,,,,,,,,,,,,,
16574.81269,70,0,-1,0,0,0,0,67,80,19134,29,82,4,23,80,Replay,,,,,,,,,,,,,,,,,,,,,
16575.33107,70,0,-1,0,0,0,0,67,79,19133,30,82,1,13,81,Replay,,,,,,,,,,,,,,,,,,,,,
16575.86277,70,0,-1,0,0,0,0,67,79,19130,30,82,0,9,80,Replay,,,,,,,,,,,,,,,,,,,,,
16576.38048,70,0,0,0,0,-1,0,68,79,19134,31,82,0,7,81,Replay,,,,,,,,,,,,,,,,,,,,,
16576.91206,70,0,-1,0,0,0,0,68,80,19131,31,82,0,5,81,Replay,,,,,,,,,,,,,,,,,,,,,
16577.41336,70,3,0,0,-8,0,0,68,81,19129,32,82,-3,5,81,Replay,,,,,,,,,,,,,,,,,,,,,
16577.92598,70,2,0,0,0,-1,0,68,80,19131,33,82,-27,16,78,Replay,,,,,,,,,,,,,,,,,,,,,
16578.44485,70,2,0,0,0,-1,0,67,81,19133,33,82,-39,19,78,Replay,,,,,,,,,,,,,,,,,,,,,
16578.94554,70,2,0,0,0,-2,0,67,80,19127,34,82,-31,-13,79,Replay,,,,,,,,,,,,,,,,,,,,,
16579.45843,70,1,-1,0,0,-2,0,68,81,19125,34,82,-19,-18,80,Replay,,,,,,,,,,,,,,,,,,,,,
16579.97623,70,1,-1,0,0,-2,0,68,81,19132,35,82,-7,-12,82,Replay,,,,,,,,,,,,,,,,,,,,,
16580.52108,70,0,0,0,0,1,0,68,80,19131,35,82,-5,-6,81,Replay,,,,,,,,,,,,,,,,,,,,,
16581.03969,70,0,0,0,0,0,0,68,81,19132,36,82,-4,-4,81,Replay,,,,,,,,,,,,,,,,,,,,,
16581.58423,70,0,0,0,0,-1,0,67,81,19129,36,82,-6,-10,82,Replay,,,,,,,,,,,,,,,,,,,,,
16582.11578,70,0,0,0,-5,-1,0,67,81,19129,37,82,-7,-16,81,Replay,,,,,,,,,,,,,,,,,,,,,
16582.63186,70,4,0,0,1,0,0,68,80,19125,37,82,1,-21,80,Replay,,,,,,,,,,,,,,,,,,,,,
16583.16282,70,2,0,0,-1,-1,0,68,80,19125,38,82,22,-30,76,Replay,,,,,,,,,,,,,,,,,,,,,
16583.67847,70,2,0,0,-1,-1,0,68,80,19130,38,82,23,-40,74,Replay,,,,,,,,,,,,,,,,,,,,,
16584.19321,70,2,0,0,-1,-1,0,68,80,19122,39,82,34,-33,80,Replay,,,,,,,,,,,,,,,,,,,,,
16584.71,70,2,-1,0,-1,0,0,68,80,19123,39,82,-25,-23,86,Replay,,,,,,,,,,,,,,,,,,,,,
16585.23163,70,1,-1,0,-1,-1,0,68,80,19119,40,82,-16,-25,82,Replay,,,,,,,,,,,,,,,,,,,,,
16585.75537,70,0,0,0,0,0,0,68,81,19127,40,81,-8,-22,82,Replay,,,,,,,,,,,,,,,,,,,,,
16586.27541,70,0,-1,0,-1,-2,0,68,81,19123,41,81,-3,-14,86,Replay,,,,,,,,,,,,,,,,,,,,,
16586.8042,70,0,-1,0,0,0,0,68,80,19119,41,81,-5,-18,81,Replay,,,,,,,,,,,,,,,,,,,,,
16587.33509,70,0,-1,0,0,0,0,68,79,19127,42,81,-5,-10,81,Replay,,,,,,,,,,,,,,,,,,,,,
16587.86571,70,0,0,0,-3,0,0,67,79,19115,42,81,-5,-7,81,Replay,,,,,,,,,,,,,,,,,,,,,
16588.39562,70,0,0,0,0,0,0,68,78,19119,43,81,-5,-4,80,Replay,,,,,,,,,,,,,,,,,,,,,
16588.91335,70,0,0,0,0,0,29,68,78,19122,44,81,-5,-5,80,Replay,,,,,,,,,,,,,,,,,,,,,
16589.45904,70,0,0,0,0,-1,60,68,77,19121,44,81,-6,-10,79,Replay,,,,,,,,,,,,,,,,,,,,,
16589.99014,60,0,0,0,0,0,96,68,77,19117,45,81,-2,-13,78,Replay,,,,,,,,,,,,,,,,,,,,,
16590.50576,60,0,0,0,0,0,126,68,77,19121,45,81,-2,-14,79,Replay,,,,,,,,,,,,,,,,,,,,,
16591.00652,70,0,0,0,0,0,157,68,79,19127,46,81,-2,-17,79,Replay,,,,,,,,,,,,,,,,,,,,,
16591.53737,70,0,0,0,0,1,173,68,81,19119,46,81,-2,-17,81,Replay,,,,,,,,,,,,,,,,,,,,,
16592.06827,70,0,0,0,0,0,177,68,83,19125,47,80,-7,-17,84,Replay,,,,,,,,,,,,,,,,,,,,,
16592.58389,70,0,0,0,0,0,177,68,82,19127,47,80,-8,-17,85,Replay,,,,,,,,,,,,,,,,,,,,,
16593.11547,70,0,0,0,0,0,177,68,76,19119,48,80,-6,-16,79,Replay,,,,,,,,,,,,,,,,,,,,,
16593.63365,60,-4,0,0,-6,0,177,68,75,19114,48,80,-12,-15,76,Replay,,,,,,,,,,,,,,,,,,,,,
16594.15381,60,-2,0,0,0,0,177,68,74,19118,49,80,-26,-11,78,Replay,,,,,,,,,,,,,,,,,,,,,
16594.67458,60,-2,0,0,0,0,177,68,74,19117,49,80,-46,-7,75,Replay,,,,,,,,,,,,,,,,,,,,,
16595.21015,60,-2,0,0,-1,0,177,68,76,19116,50,80,15,-22,73,Replay,,,,,,,,,,,,,,,,,,,,,
16595.72378,70,-2,0,0,-1,0,177,68,75,19114,50,80,3,-20,75,Replay,,,,,,,,,,,,,,,,,,,,,
16596.24053,60,0,0,0,0,0,177,68,75,19113,51,80,-11,-20,75,Replay,,,,,,,,,,,,,,,,,,,,,
16596.75658,60,1,-1,0,1,1,177,68,75,19119,51,80,-13,-19,75,Replay,,,,,,,,,,,,,,,,,,,,,
16597.27234,70,0,-1,0,0,0,177,68,77,19112,52,80,-7,-9,77,Replay,,,,,,,,,,,,,,,,,,,,,
16597.80236,70,0,0,0,-1,0,177,68,78,19119,52,80,-6,-4,79,Replay,,,,,,,,,,,,,,,,,,,,,
16598.34921,70,0,0,0,0,0,177,68,77,19120,53,80,-5,-3,78,Replay,,,,,,,,,,,,,,,,,,,,,
16598.87982,70,0,0,0,0,0,177,68,77,19130,53,80,-5,-2,78,Replay,,,,,,,,,,,,,,,,,,,,,
16599.41058,70,0,0,-1,0,0,177,68,83,19126,54,80,-5,-2,83,Replay,,,,,,,,,,,,,,,,,,,,,
16599.91235,80,0,0,-1,0,0,177,68,95,19138,55,80,-5,-2,95,Replay,,,,,,,,,,,,,,,,,,,,,
16600.44193,90,0,0,-1,0,0,177,68,106,19151,55,80,-6,-3,103,Replay,,,,,,,,,,,,,,,,,,,,,
16600.97465,100,0,0,-1,0,0,177,68,115,19143,56,80,-7,-1,113,Replay,,,,,,,,,,,,,,,,,,,,,
16601.5057,100,0,0,0,0,0,177,68,117,19149,56,80,-6,-3,118,Replay,,,,,,,,,,,,,,,,,,,,,
16602.02232,90,0,0,2,0,0,177,68,108,19143,57,79,-5,-2,110,Replay,,,,,,,,,,,,,,,,,,,,,
16602.55406,80,0,0,2,0,0,177,68,92,19132,57,79,-7,-2,95,Replay,,,,,,,,,,,,,,,,,,,,,
16603.08483,70,0,0,1,0,0,177,68,85,19123,58,79,-7,-1,87,Replay,,,,,,,,,,,,,,,,,,,,,
16603.61556,70,0,0,0,0,0,177,68,77,19117,58,79,-14,0,77,Replay,,,,,,,,,,,,,,,,,,,,,
16604.16313,70,1,0,0,0,0,177,68,77,19116,59,79,-9,0,76,Replay,,,,,,,,,,,,,,,,,,,,,
16604.69573,70,1,0,0,0,0,177,68,78,19124,59,79,-11,0,76,Replay,,,,,,,,,,,,,,,,,,,,,
16605.2404,70,0,0,0,-8,0,177,68,81,19123,60,79,0,-2,80,Replay,,,,,,,,,,,,,,,,,,,,,
16605.80319,70,-3,0,0,0,0,177,69,80,19121,60,78,-9,5,80,Replay,,,,,,,,,,,,,,,,,,,,,
16606.33253,70,-2,0,0,-1,0,177,69,80,19110,61,78,-24,7,80,Replay,,,,,,,,,,,,,,,,,,,,,
16606.85026,70,-2,0,0,-1,0,177,68,79,19114,61,78,-43,11,77,Replay,,,,,,,,,,,,,,,,,,,,,
16607.38148,70,-2,0,0,-1,-1,177,68,79,19121,62,78,-33,2,78,Replay,,,,,,,,,,,,,,,,,,,,,
16607.91306,70,-1,0,0,0,0,177,67,79,19117,62,78,-14,1,80,Replay,,,,,,,,,,,,,,,,,,,,,
16608.44412,70,-1,0,0,-8,0,177,67,80,19111,63,78,-13,2,80,Replay,,,,,,,,,,,,,,,,,,,,,
16608.97488,70,-6,0,0,-7,0,177,67,81,19109,64,78,2,2,81,Replay,,,,,,,,,,,,,,,,,,,,,
16609.49146,70,-9,0,0,-5,0,177,67,84,19096,64,78,47,-4,78,Replay,,,,,,,,,,,,,,,,,,,,,
16610.00437,70,-9,0,0,-4,0,177,68,88,19103,65,78,-4,10,87,Replay,,,,,,,,,,,,,,,,,,,,,
16610.52208,70,-9,0,0,-4,0,177,68,88,19103,65,78,50,5,90,Replay,,,,,,,,,,,,,,,,,,,,,
16611.05321,70,-10,0,0,-4,0,177,68,63,19095,66,78,50,5,90,Replay,,,,,,,,,,,,,,,,,,,,,
16611.59991,-10,4,4,28,6,-75,158,68,10,19088,66,78,50,5,90,Replay,,,,,,,,,,,,,,,,,,,,,
16612.11802,-10,4,4,28,6,-75,158,68,10,19088,66,78,50,5,90,Replay,,,,,,,,,,,,,,,,,,,,,
16612.62599,-10,4,4,28,6,-75,158,68,10,19088,66,78,50,5,90,Replay,,,,,,,,,,,,,,,,,,,,,
16613.14764,-10,4,4,28,6,-75,158,68,10,19088,66,78,50,5,90,Replay,,,,,,,,,,,,,,,,,,,,,
16613.66446,-10,4,4,28,6,-75,158,68,10,19088,66,78,50,5,90,Replay,,,,,,,,,,,,,,,,,,,,,
16614.19336,-10,4,4,28,6,-75,158,68,10,19088,66,78,50,5,90,Replay,,,,,,,,,,,,,,,,,,,,,
16614.71104,-10,4,4,28,6,-75,158,68,10,19088,66,78,50,5,90,Replay,,,,,,,,,,,,,,,,,,,,,
16615.23823,-10,4,4,28,6,-75,158,68,10,19088,66,78,50,5,90,Replay,,,,,,,,,,,,,,,,,,,,,
